[
  {
    "id": "0",
    "name": "アサンプション国際高等学校",
    "ruby": "あさんぷしょんこくさいこうとうがっこう",
    "site": "https://www.assumption.ed.jp/jsh/",
    "address": "大阪府箕面市如意谷1-13-23",
    "label": "私立",
    "education": "共学校",
    "course": "普通科",
    "tel": "072-721-3080",
    "lat": "34.836591",
    "lng": "135.478682",
    "near": "阪急箕面線「箕面」徒歩約15分／阪急千里線「北千里」からスクールバス／北大阪急行・大阪モノレール「千里中央」から阪急バス「如意谷住宅前」下車徒歩約2分・「第二中学校口」下車徒歩約5分",
    "course1": "普通科",
    "course2": "",
    "course3": "",
    "course4": "",
    "course5": "",
    "course6": ""
  },
  {
    "id": "1",
    "name": "アナン学園高等学校",
    "ruby": "あなんがくえんこうとうがっこう",
    "site": "https://www.anangakuen.ed.jp/",
    "address": "大阪府東大阪市若江西新町3-1-8",
    "label": "私立",
    "education": "共学校",
    "course": "看護科（5年一貫教育）、調理科",
    "tel": "06-6723-5511",
    "lat": "34.656545",
    "lng": "135.596929",
    "near": "近鉄奈良線「八戸野ノ里」南東徒歩約15分",
    "course1": "看護科（5年一貫教育）",
    "course2": "調理科",
    "course3": "",
    "course4": "",
    "course5": "",
    "course6": ""
  },
  {
    "id": "2",
    "name": "あべの翔学高等学校",
    "ruby": "あべのしょうまなぶこうとうがっこう",
    "site": "http://www.abeno-shogaku.ed.jp",
    "address": "大阪府大阪市阿倍野区天王寺町南2-8-19",
    "label": "私立",
    "education": "共学校",
    "course": "普通科",
    "tel": "06-6719-2801",
    "lat": "34.642423",
    "lng": "135.525329",
    "near": "近鉄南大阪線「河堀口」180ｍ／JR阪和線「美章園」600ｍ／JR環状線「寺田町」700ｍ",
    "course1": "普通科",
    "course2": "",
    "course3": "",
    "course4": "",
    "course5": "",
    "course6": ""
  },
  {
    "id": "3",
    "name": "上宮高等学校",
    "ruby": "うえみやこうとうがっこう",
    "site": "http://www.uenomiya.ed.jp",
    "address": "大阪府大阪市天王寺区上之宮町9-36",
    "label": "私立",
    "education": "共学校",
    "course": "普通科",
    "tel": "06-6771-5701",
    "lat": "34.661188",
    "lng": "135.519676",
    "near": "大阪メトロ谷町線・千日前線「谷町九丁目」徒歩10分／JR大阪環状線「桃谷」徒歩12分／近鉄「大阪上本町」徒歩6分／大阪市バス62号系統「上本町八丁目」下車徒歩2分",
    "course1": "普通科",
    "course2": "",
    "course3": "",
    "course4": "",
    "course5": "",
    "course6": ""
  },
  {
    "id": "4",
    "name": "上宮太子高等学校",
    "ruby": "うえのみやたいしこうとうがっこう",
    "site": "http://www.uenomiya-taishi.ed.jp",
    "address": "大阪府大阪府南河内郡太子町太子1053",
    "label": "私立",
    "education": "共学校",
    "course": "普通科",
    "tel": "0721-98-3611",
    "lat": "34.51615",
    "lng": "135.637405",
    "near": "近鉄長野線「喜志」・近鉄南大阪線「上ノ太子」・JR大和路線「高井田」・近鉄大阪線「河内国分」・南海高野線「金剛」からスクールバス",
    "course1": "普通科",
    "course2": "",
    "course3": "",
    "course4": "",
    "course5": "",
    "course6": ""
  },
  {
    "id": "5",
    "name": "ヴェリタス城星学園高等学校",
    "ruby": "う゛ぇりたすじょうせいがくえんこうとうがっこう",
    "site": "http://www.josei.ed.jp/",
    "address": "大阪府大阪市中央区玉造2-23-26",
    "label": "私立",
    "education": "女子校",
    "course": "普通科",
    "tel": "06-6941-5977",
    "lat": "34.678156",
    "lng": "135.527971",
    "near": "JR環状線「玉造」・「森ノ宮」徒歩約10分／大阪メトロ「玉造」徒歩約6分／大阪メトロ「森ノ宮」徒歩約10分／大阪市バス「玉造二丁目」下車徒歩約3分",
    "course1": "普通科",
    "course2": "",
    "course3": "",
    "course4": "",
    "course5": "",
    "course6": ""
  },
  {
    "id": "6",
    "name": "英真学園高等学校",
    "ruby": "えいしんがくえんこうとうがっこう",
    "site": "http://www.eishingakuen.ac.jp",
    "address": "大阪府大阪市淀川区十三東5-4-38",
    "label": "私立",
    "education": "共学校",
    "course": "普通科",
    "tel": "06-6303-2181",
    "lat": "34.723726",
    "lng": "135.483438",
    "near": "阪急「十三」東口徒歩5分",
    "course1": "普通科",
    "course2": "",
    "course3": "",
    "course4": "",
    "course5": "",
    "course6": ""
  },
  {
    "id": "7",
    "name": "英風高等学校",
    "ruby": "えいふうこうとうがっこう",
    "site": "https://eifu.ed.jp/",
    "address": "大阪府大阪市福島区吉野4-13-4",
    "label": "私立",
    "education": "女子校",
    "course": "通信制",
    "tel": "0120-8120-78",
    "lat": "34.688457",
    "lng": "135.471624",
    "near": "JR環状線「野田」徒歩約3分／JR東西線「海老江」徒歩約13分／大阪メトロ千日前線「玉川」徒歩約5分／阪神本線「野田」徒歩約13分",
    "course1": "通信制",
    "course2": "",
    "course3": "",
    "course4": "",
    "course5": "",
    "course6": ""
  },
  {
    "id": "8",
    "name": "追手門学院高等学校",
    "ruby": "おうてもんがくいんこうとうがっこう",
    "site": "https://www.otemon-jh.ed.jp",
    "address": "大阪府茨木市太田東芝町1-1",
    "label": "私立",
    "education": "共学校",
    "course": "普通科",
    "tel": "072-697-8185",
    "lat": "34.838221",
    "lng": "135.577174",
    "near": "JR京都線「総持寺」徒歩15分／阪急京都線「総持寺」徒歩25分／阪急京都線「茨木市」から近鉄バス「追大総持寺キャンパス前」・「追手門学院中・高前」下車すぐ",
    "course1": "普通科",
    "course2": "",
    "course3": "",
    "course4": "",
    "course5": "",
    "course6": ""
  },
  {
    "id": "9",
    "name": "追手門学院大手前高等学校",
    "ruby": "おうてもんがくいんおおてまえこうとうがっこう",
    "site": "https://www.otemon-js.ed.jp/",
    "address": "大阪府大阪市中央区大手前1-3-20",
    "label": "私立",
    "education": "共学校",
    "course": "普通科",
    "tel": "06-6942-2235",
    "lat": "34.689318",
    "lng": "135.520704",
    "near": "京阪本線・大阪メトロ谷町線「天満橋」徒歩5分／JR東西線「大阪城北詰」徒歩10分",
    "course1": "普通科",
    "course2": "",
    "course3": "",
    "course4": "",
    "course5": "",
    "course6": ""
  },
  {
    "id": "10",
    "name": "大阪高等学校",
    "ruby": "おおさかこうとうがっこう",
    "site": "http://www.osakashs.ed.jp/",
    "address": "大阪府大阪市東淀川区相川2-18-51",
    "label": "私立",
    "education": "共学校",
    "course": "普通科",
    "tel": "06-6340-3031",
    "lat": "34.759083",
    "lng": "135.534953",
    "near": "阪急京都線「相川」徒歩すぐ／JR京都線「吹田」下車徒歩15分／大阪メトロ今里筋線「井高野」徒歩12分",
    "course1": "普通科",
    "course2": "",
    "course3": "",
    "course4": "",
    "course5": "",
    "course6": ""
  },
  {
    "id": "11",
    "name": "大阪偕星学園高等学校",
    "ruby": "おおさかかいせいがくえんこうとうがっこう",
    "site": "http://www.osaka-kaisei.ac.jp",
    "address": "大阪府大阪市生野区勝山南2-6-38",
    "label": "私立",
    "education": "共学校",
    "course": "普通科",
    "tel": "06-6716-0003",
    "lat": "34.65255",
    "lng": "135.530172",
    "near": "JR大阪環状線「桃谷」「寺田町」徒歩10分",
    "course1": "普通科",
    "course2": "",
    "course3": "",
    "course4": "",
    "course5": "",
    "course6": ""
  },
  {
    "id": "12",
    "name": "大阪学院大学高等学校",
    "ruby": "おおさかがくいんだいがくこうとうがっこう",
    "site": "http://www.ogu-h.ed.jp/",
    "address": "大阪府吹田市岸辺南2-6-1",
    "label": "私立",
    "education": "共学校",
    "course": "普通科",
    "tel": "06-6381-6661",
    "lat": "34.774764",
    "lng": "135.54137",
    "near": "JR京都線「岸辺」徒歩2分／阪急京都線「正雀」徒歩7分",
    "course1": "普通科",
    "course2": "",
    "course3": "",
    "course4": "",
    "course5": "",
    "course6": ""
  },
  {
    "id": "13",
    "name": "大阪学芸高等学校",
    "ruby": "おおさかがくげいこうとうがっこう",
    "site": "https://www.osakagakugei.ac.jp/senior/",
    "address": "大阪府大阪市住吉区長居1-4-15",
    "label": "私立",
    "education": "共学校",
    "course": "普通科",
    "tel": "06-6693-6301",
    "lat": "34.61537",
    "lng": "135.512123",
    "near": "JR阪和線「長居」徒歩6分、JR阪和線「鶴ヶ丘」徒歩8分、大阪メトロ御堂筋線「長居」徒歩7分、大阪メトロ御堂筋線「西田辺」徒歩10分",
    "course1": "普通科",
    "course2": "",
    "course3": "",
    "course4": "",
    "course5": "",
    "course6": ""
  },
  {
    "id": "14",
    "name": "大阪暁光高等学校",
    "ruby": "おおさかぎょうこうこうとうがっこう",
    "site": "https://www.osakagyoko.ed.jp/",
    "address": "大阪府河内長野市楠町西1090",
    "label": "私立",
    "education": "共学校",
    "course": "看護科、看護専攻科、普通科",
    "tel": "0721-53-5281",
    "lat": "34.470816",
    "lng": "135.561096",
    "near": "南海高野線「千代田」北西徒歩8分",
    "course1": "看護科",
    "course2": "看護専攻科",
    "course3": "普通科",
    "course4": "",
    "course5": "",
    "course6": ""
  },
  {
    "id": "15",
    "name": "大阪薫英女学院高等学校",
    "ruby": "おおさかくんえいじょがくいんこうとうがっこう",
    "site": "https://www.kun-ei.jp/",
    "address": "大阪府摂津市正雀1-4-1",
    "label": "私立",
    "education": "女子校",
    "course": "国際科、普通科",
    "tel": "06-6381-5381",
    "lat": "34.778372",
    "lng": "135.549926",
    "near": "阪急京都線「正雀」徒歩5分／JR「岸辺」徒歩10分／大阪モノレール「摂津」徒歩15分",
    "course1": "国際科",
    "course2": "普通科",
    "course3": "",
    "course4": "",
    "course5": "",
    "course6": ""
  },
  {
    "id": "16",
    "name": "大阪国際高等学校",
    "ruby": "おおさかこくさいこうとうがっこう",
    "site": "https://www.kokusai-h.oiu.ed.jp",
    "address": "大阪府守口市松下町1-28",
    "label": "私立",
    "education": "共学校",
    "course": "普通科",
    "tel": "06-6992-5931",
    "lat": "34.72952",
    "lng": "135.56767",
    "near": "京阪「土居」徒歩8分・京阪「守口」徒歩10分・今里筋線「清水」徒歩12分・谷町線「太子橋今市」徒歩14分・大阪シティバス「滝井」徒歩7分",
    "course1": "普通科",
    "course2": "",
    "course3": "",
    "course4": "",
    "course5": "",
    "course6": ""
  },
  {
    "id": "17",
    "name": "大阪金剛インターナショナル高等学校",
    "ruby": "おおさかこんごういんたーなしょなるこうとうがっこう",
    "site": "http://www.kongogakuen.ed.jp",
    "address": "大阪府大阪市住之江区南港北2-6-10",
    "label": "私立",
    "education": "共学校",
    "course": "普通科",
    "tel": "06-4703-1780",
    "lat": "34.639535",
    "lng": "135.407342",
    "near": "大阪メトロ中央線「コスモスクエア」徒歩15分／ニュートラム「トレードセンター前」徒歩7分",
    "course1": "普通科",
    "course2": "",
    "course3": "",
    "course4": "",
    "course5": "",
    "course6": ""
  },
  {
    "id": "18",
    "name": "大阪産業大学附属高等学校",
    "ruby": "おおさかさんぎょうだいがくふぞくこうとうがっこう",
    "site": "http://www.osaka-sandai.ed.jp/",
    "address": "大阪府大阪市城東区古市1-20-26",
    "label": "私立",
    "education": "共学校",
    "course": "国際科、普通科",
    "tel": "06-6939-1491",
    "lat": "34.708851",
    "lng": "135.558921",
    "near": "大阪メトロ長堀鶴見緑地線「今福鶴見」徒歩7分／大阪メトロ今里筋線「新森古市」徒歩7分／京阪本線「関目」徒歩15分／大阪市シティバス86号系統「鶴見六丁目」下車すぐ",
    "course1": "国際科",
    "course2": "普通科",
    "course3": "",
    "course4": "",
    "course5": "",
    "course6": ""
  },
  {
    "id": "19",
    "name": "大阪商業大学高等学校",
    "ruby": "おおさかしょうぎょうだいがくこうとうがっこう",
    "site": "http://www.daishodai-h.ed.jp",
    "address": "大阪府東大阪市御厨栄町4-1-10",
    "label": "私立",
    "education": "共学校",
    "course": "普通科",
    "tel": "06-6781-3050",
    "lat": "34.666876",
    "lng": "135.585732",
    "near": "近鉄奈良線「八戸ノ里」徒歩4分・「河内小阪」北東徒歩8分／大阪メトロ中央線「長田」徒歩20分／JR学研都市線「徳庵」からバス「商業大学前」・「鴻池新田」からバス「商業大学前」下車すぐ",
    "course1": "普通科",
    "course2": "",
    "course3": "",
    "course4": "",
    "course5": "",
    "course6": ""
  },
  {
    "id": "20",
    "name": "大阪商業大学堺高等学校",
    "ruby": "おおさかしょうぎょうだいがくさかいこうとうがっこう",
    "site": "http://www.shodaisakai.ac.jp",
    "address": "大阪府堺市中区堀上町358",
    "label": "私立",
    "education": "共学校",
    "course": "普通科",
    "tel": "072-278-2252",
    "lat": "34.528067",
    "lng": "135.48699",
    "near": "JR「津久野」からバス「八田寺公園前」または「堀上」下車すぐ／泉北高速鉄道「深井」下車徒歩15分",
    "course1": "普通科",
    "course2": "",
    "course3": "",
    "course4": "",
    "course5": "",
    "course6": ""
  },
  {
    "id": "21",
    "name": "大阪女学院高等学校",
    "ruby": "おおさかじょがくいんこうとうがっこう",
    "site": "http://www.osaka-jogakuin.ed.jp",
    "address": "大阪府大阪市中央区玉造2-26-54",
    "label": "私立",
    "education": "女子校",
    "course": "英語科、普通科",
    "tel": "06-6761-4113",
    "lat": "34.675871",
    "lng": "135.527667",
    "near": "大阪メトロ長堀鶴見緑地線「玉造」1番出口西徒歩3分／JR環状線「玉造」西500ｍ／大阪メトロ中央線「森ノ宮」南西700ｍ／大阪市バス「清水谷高校前」下車北100ｍ",
    "course1": "英語科",
    "course2": "普通科",
    "course3": "",
    "course4": "",
    "course5": "",
    "course6": ""
  },
  {
    "id": "22",
    "name": "大阪信愛学院高等学校",
    "ruby": "おおさかしんあいがくいんこうとうがっこう",
    "site": "http://www.osaka-shinai.ac.jp",
    "address": "大阪府大阪市城東区古市2-7-30",
    "label": "私立",
    "education": "共学校",
    "course": "普通科",
    "tel": "06-6939-4391",
    "lat": "34.711171",
    "lng": "135.557762",
    "near": "京阪本線「関目」徒歩15分、大阪メトロ長堀鶴見緑地線「今福鶴見」徒歩15分、大阪メトロ谷町線「関目高殿」徒歩18分、大阪メトロ今里筋線「新森古市」徒歩5分",
    "course1": "普通科",
    "course2": "",
    "course3": "",
    "course4": "",
    "course5": "",
    "course6": ""
  },
  {
    "id": "23",
    "name": "大阪成蹊女子高等学校",
    "ruby": "おおさかせいけいじょしこうとうがっこう",
    "site": "http://high.osaka-seikei.ac.jp",
    "address": "大阪府大阪市東淀川区相川3-10-62",
    "label": "私立",
    "education": "女子校",
    "course": "美術科、普通科",
    "tel": "06-6829-2510",
    "lat": "34.759108",
    "lng": "135.537472",
    "near": "阪急京都線「相川」東徒歩約4分／大阪メトロ今里筋線・JR京都線「吹田」からスクールバス",
    "course1": "美術科",
    "course2": "普通科",
    "course3": "",
    "course4": "",
    "course5": "",
    "course6": ""
  },
  {
    "id": "24",
    "name": "大阪星光学院高等学校",
    "ruby": "おおさかせいこうがくいんこうとうがっこう",
    "site": "http://www.osakaseiko.ac.jp/",
    "address": "大阪府大阪市天王寺区伶人町1-6",
    "label": "私立",
    "education": "男子校",
    "course": "普通科",
    "tel": "06-6771-0737",
    "lat": "34.656462",
    "lng": "135.513337",
    "near": "大阪メトロ谷町線「四天王寺前夕陽丘」徒歩2分",
    "course1": "普通科",
    "course2": "",
    "course3": "",
    "course4": "",
    "course5": "",
    "course6": ""
  },
  {
    "id": "25",
    "name": "大阪青凌高等学校",
    "ruby": "おおさかせいりょうこうとうがっこう",
    "site": "https://www.osakaseiryo.jp/",
    "address": "大阪府三島郡島本町若山台1-1-1",
    "label": "私立",
    "education": "共学校",
    "course": "普通科",
    "tel": "075-754-7771",
    "lat": "34.886652",
    "lng": "135.660496",
    "near": "JR京都線「島本」徒歩10分／阪急京都線「水無瀬」徒歩15分",
    "course1": "普通科",
    "course2": "",
    "course3": "",
    "course4": "",
    "course5": "",
    "course6": ""
  },
  {
    "id": "26",
    "name": "大阪体育大学浪商高等学校",
    "ruby": "おおさかたいいくだいがくなみしょうこうとうがっこう",
    "site": "http://www.ouhs-school.jp/",
    "address": "大阪府大阪府泉南郡熊取町朝代台1-1",
    "label": "私立",
    "education": "共学校",
    "course": "普通科",
    "tel": "072-453-7001",
    "lat": "34.380295",
    "lng": "135.357242",
    "near": "JR阪和線「熊取」から南海バス「浪商学園前」下車／南海本線「泉佐野」から南海バス「浪商学園前」下車",
    "course1": "普通科",
    "course2": "",
    "course3": "",
    "course4": "",
    "course5": "",
    "course6": ""
  },
  {
    "id": "27",
    "name": "大阪つくば開成高等学校",
    "ruby": "おおさかつくばかいせいこうとうがっこう",
    "site": "http://otk.ed.jp/",
    "address": "大阪府大阪市北区天満2-2-16",
    "label": "私立",
    "education": "共学校",
    "course": "通信制",
    "tel": "06-6352-0020",
    "lat": "34.692333",
    "lng": "135.516339",
    "near": "京阪・大阪メトロ谷町線「天満橋」徒歩4分／JR東西線「大阪天満宮」・大阪メトロ堺筋線「南森町」JR2番出口徒歩9分",
    "course1": "通信制",
    "course2": "",
    "course3": "",
    "course4": "",
    "course5": "",
    "course6": ""
  },
  {
    "id": "28",
    "name": "大阪電気通信大学高等学校",
    "ruby": "おおさかでんきつうしんだいがくこうとうがっこう",
    "site": "http://www.dentsu.ed.jp/",
    "address": "大阪府守口市橋波西之町1-5-18",
    "label": "私立",
    "education": "共学校",
    "course": "工学科、普通科",
    "tel": "06-6992-6261",
    "lat": "34.737075",
    "lng": "135.571421",
    "near": "京阪電車「守口市」徒歩10分／京阪電車「西三荘」徒歩6分／大阪モノレール・京阪電車「門真市」徒歩16分／大阪メトロ谷町線「守口」徒歩10分",
    "course1": "工学科",
    "course2": "普通科",
    "course3": "",
    "course4": "",
    "course5": "",
    "course6": ""
  },
  {
    "id": "29",
    "name": "大阪桐蔭高等学校",
    "ruby": "おおさかとういんこうとうがっこう",
    "site": "http://www.osakatoin.ed.jp",
    "address": "大阪府大東市中垣内3-1-1",
    "label": "私立",
    "education": "共学校",
    "course": "普通科",
    "tel": "072-870-1001",
    "lat": "34.707958",
    "lng": "135.645655",
    "near": "JR学研都市線「野崎」徒歩18分・「住道」からシャトルバス／近鉄けいはんな線「新石切」から近鉄バス「産業大学前」下車すぐ",
    "course1": "普通科",
    "course2": "",
    "course3": "",
    "course4": "",
    "course5": "",
    "course6": ""
  },
  {
    "id": "30",
    "name": "大阪夕陽丘学園高等学校",
    "ruby": "おおさかゆうひがおかがくえんこうとうがっこう",
    "site": "http://www.oyg.ed.jp",
    "address": "大阪府大阪市天王寺区生玉寺町7-72",
    "label": "私立",
    "education": "共学校",
    "course": "普通科",
    "tel": "06-6771-9510",
    "lat": "34.659836",
    "lng": "135.5135",
    "near": "大阪メトロ谷町線「四天王寺前夕陽ヶ丘」徒歩3分／南海「なんば」徒歩12分／近鉄「大阪上本町」徒歩12分／JR「天王寺」徒歩20分",
    "course1": "普通科",
    "course2": "",
    "course3": "",
    "course4": "",
    "course5": "",
    "course6": ""
  },
  {
    "id": "31",
    "name": "大阪緑涼高等学校",
    "ruby": "おおさかりょくりょうこうとうがっこう",
    "site": "http://www.osakaryokuryo.ed.jp/",
    "address": "大阪府藤井寺市春日丘3-8-1",
    "label": "私立",
    "education": "共学校",
    "course": "普通科",
    "tel": "072-955-0718",
    "lat": "34.569304",
    "lng": "135.589559",
    "near": "近鉄南大阪線「藤井寺」徒歩5分",
    "course1": "普通科",
    "course2": "",
    "course3": "",
    "course4": "",
    "course5": "",
    "course6": ""
  },
  {
    "id": "32",
    "name": "大谷高等学校",
    "ruby": "おおたにこうとうがっこう",
    "site": "http://www.osk-ohtani.ed.jp",
    "address": "大阪府大阪市阿倍野区共立通2-8-4",
    "label": "私立",
    "education": "女子校",
    "course": "普通科",
    "tel": "06-6661-8400",
    "lat": "34.638967",
    "lng": "135.506219",
    "near": "大阪メトロ谷町線「阿倍野」徒歩8分／JR環状線・阪和線「天王寺」・近鉄南大阪線「あべの橋」・大阪メトロ御堂筋線「天王寺」徒歩17分／南海本線・高野線・大阪メトロ堺筋線「天下茶屋」徒歩15分／阪堺線「松虫」徒歩7分",
    "course1": "普通科",
    "course2": "",
    "course3": "",
    "course4": "",
    "course5": "",
    "course6": ""
  },
  {
    "id": "33",
    "name": "開明高等学校",
    "ruby": "かいめいこうとうがっこう",
    "site": "https://www.kaimei.ed.jp/",
    "address": "大阪府大阪市城東区野江1-9-9",
    "label": "私立",
    "education": "共学校",
    "course": "普通科",
    "tel": "06-6932-4461",
    "lat": "34.700955",
    "lng": "135.537813",
    "near": "大阪メトロ谷町線「野江内代」、大阪メトロ長堀鶴見緑地線・今里筋線「蒲生四丁目」、京阪本線「野江」、JRおおさか東線「JR野江」徒歩12分",
    "course1": "普通科",
    "course2": "",
    "course3": "",
    "course4": "",
    "course5": "",
    "course6": ""
  },
  {
    "id": "34",
    "name": "香ヶ丘リベルテ高等学校",
    "ruby": "かおりがおかりべるてこうとうがっこう",
    "site": "http://www.liberte.ed.jp",
    "address": "大阪府堺市堺区浅香山町1-2-20",
    "label": "私立",
    "education": "女子校",
    "course": "普通科",
    "tel": "072-238-7881",
    "lat": "34.584265",
    "lng": "135.497418",
    "near": "JR阪和線「浅香」徒歩5分／南海高野線「浅香山」徒歩12分／大阪メトロ御堂筋線「北花田」からバス「愛泉学園前」下車",
    "course1": "普通科",
    "course2": "",
    "course3": "",
    "course4": "",
    "course5": "",
    "course6": ""
  },
  {
    "id": "35",
    "name": "関西大倉高等学校",
    "ruby": "かんさいおおくらこうとうがっこう",
    "site": "http://www.kankura.jp",
    "address": "大阪府茨木市室山2-14-1",
    "label": "私立",
    "education": "共学校",
    "course": "普通科",
    "tel": "072-643-6321",
    "lat": "34.848608",
    "lng": "135.542071",
    "near": "JR「茨木」／阪急「茨木市」「北千里」「石橋阪大前」／北大阪急行・大阪モノレール「千里中央」からスクールバス",
    "course1": "普通科",
    "course2": "",
    "course3": "",
    "course4": "",
    "course5": "",
    "course6": ""
  },
  {
    "id": "36",
    "name": "関西創価高等学校",
    "ruby": "かんさいそうかこうとうがっこう",
    "site": "http://www.kansai.soka.ed.jp",
    "address": "大阪府交野市寺3-20-1",
    "label": "私立",
    "education": "共学校",
    "course": "普通科",
    "tel": "072-891-0011",
    "lat": "34.78444",
    "lng": "135.697268",
    "near": "JR学研都市線「河内磐船」徒歩20分・京阪交野線「河内森」徒歩20分",
    "course1": "普通科",
    "course2": "",
    "course3": "",
    "course4": "",
    "course5": "",
    "course6": ""
  },
  {
    "id": "37",
    "name": "関西大学高等部",
    "ruby": "かんさいだいがくこうとうぶ",
    "site": "https://www.kansai-u.ac.jp/senior/",
    "address": "大阪府大阪府高槻市白梅町7-1",
    "label": "私立",
    "education": "共学校",
    "course": "普通科",
    "tel": "072-684-4327",
    "lat": "34.85493",
    "lng": "135.622635",
    "near": "JR京都線「高槻」徒歩7分／阪急京都線「高槻市」徒歩10分",
    "course1": "普通科",
    "course2": "",
    "course3": "",
    "course4": "",
    "course5": "",
    "course6": ""
  },
  {
    "id": "38",
    "name": "関西大学第一高等学校",
    "ruby": "かんさいだいがくだいいちこうとうがっこう",
    "site": "http://www.kansai-u.ac.jp/dai-ichi/high/",
    "address": "大阪府吹田市山手町3-3-24",
    "label": "私立",
    "education": "共学校",
    "course": "普通科",
    "tel": "06-6337-7750",
    "lat": "34.770101",
    "lng": "135.509064",
    "near": "阪急千里線「関大前」南徒歩3分",
    "course1": "普通科",
    "course2": "",
    "course3": "",
    "course4": "",
    "course5": "",
    "course6": ""
  },
  {
    "id": "39",
    "name": "関西大学北陽高等学校",
    "ruby": "かんさいだいがくほくようこうとうがっこう",
    "site": "http://www.kansai-u.ac.jp/hokuyo/",
    "address": "大阪府大阪市東淀川区上新庄1-3-26",
    "label": "私立",
    "education": "共学校",
    "course": "普通科",
    "tel": "06-6328-5964",
    "lat": "34.746032",
    "lng": "135.529435",
    "near": "阪急京都線「上新庄」徒歩8分／阪急千里線「下新庄」徒歩13分／JRおおさか東線「JR淡路」徒歩15分",
    "course1": "普通科",
    "course2": "",
    "course3": "",
    "course4": "",
    "course5": "",
    "course6": ""
  },
  {
    "id": "40",
    "name": "関西福祉科学大学高等学校",
    "ruby": "かんさいふくしかがくだいがくこうとうがっこう",
    "site": "http://www.hs.fuksi-kagk-u.ac.jp",
    "address": "大阪府柏原市旭ｹ丘3-11-1",
    "label": "私立",
    "education": "共学校",
    "course": "普通科",
    "tel": "072-976-1112",
    "lat": "34.558183",
    "lng": "135.635669",
    "near": "近鉄大阪線「河内国分」徒歩12分・「大阪教育大前」徒歩10分／近鉄南大阪線「古市」からスクールバス約20分／JR大和路線「高井田」徒歩20分・スクールバス10分",
    "course1": "普通科",
    "course2": "",
    "course3": "",
    "course4": "",
    "course5": "",
    "course6": ""
  },
  {
    "id": "41",
    "name": "関西学院千里国際高等学校",
    "ruby": "かんせいがくいんせんりこくさいこうとうがっこう",
    "site": "http://www.senri.ed.jp",
    "address": "大阪府箕面市小野原西4-4-16",
    "label": "私立",
    "education": "共学校",
    "course": "普通科",
    "tel": "072-727-5050",
    "lat": "34.829667",
    "lng": "135.508757",
    "near": "阪急千里線「北千里」から阪急バス15分／北大阪急行・大阪モノレール「千里中央」から阪急バス25分",
    "course1": "普通科",
    "course2": "",
    "course3": "",
    "course4": "",
    "course5": "",
    "course6": ""
  },
  {
    "id": "42",
    "name": "近畿大阪高等学校",
    "ruby": "きんきおおさかこうとうがっこう",
    "site": "https://koutoku.ac.jp/kinkiosaka/",
    "address": "大阪府阪南市箱作1054-1",
    "label": "私立",
    "education": "共学校",
    "course": "通信制",
    "tel": "072-447-4761",
    "lat": "34.340875",
    "lng": "135.211104",
    "near": "南海本線「箱作駅」徒歩5分",
    "course1": "通信制",
    "course2": "",
    "course3": "",
    "course4": "",
    "course5": "",
    "course6": ""
  },
  {
    "id": "43",
    "name": "近畿大学泉州高等学校",
    "ruby": "きんきだいがくせんしゅうこうとうがっこう",
    "site": "http://www.kindai-sensyu.ed.jp/",
    "address": "大阪府岸和田市内畑町3558",
    "label": "私立",
    "education": "共学校",
    "course": "普通科",
    "tel": "072-479-1231",
    "lat": "34.419175",
    "lng": "135.432807",
    "near": "近鉄長野線「岸和田」・JR阪和線「久米田」から南海バス「沢峯」下車徒歩10分",
    "course1": "普通科",
    "course2": "",
    "course3": "",
    "course4": "",
    "course5": "",
    "course6": ""
  },
  {
    "id": "44",
    "name": "近畿大学附属高等学校",
    "ruby": "きんきだいがくふぞくこうとうがっこう",
    "site": "http://www.jsh.kindai.ac.jp",
    "address": "大阪府東大阪市若江西新町5-3-1",
    "label": "私立",
    "education": "共学校",
    "course": "普通科",
    "tel": "06-6722-1261",
    "lat": "34.650821",
    "lng": "135.595028",
    "near": "近鉄大阪線「長瀬」徒歩約20分／近鉄奈良線「八戸ノ里」南徒歩約20分・近大シャトルバス／京阪「門真市」・大阪モノレール「門真市」・大阪メトロ「門真南」・JR「鴻池新田」からスクールバス",
    "course1": "普通科",
    "course2": "",
    "course3": "",
    "course4": "",
    "course5": "",
    "course6": ""
  },
  {
    "id": "45",
    "name": "金蘭会高等学校",
    "ruby": "きんらんかいこうとうがっこう",
    "site": "http://www.kinran.ed.jp",
    "address": "大阪府大阪市北区大淀南3-3-7",
    "label": "私立",
    "education": "女子校",
    "course": "普通科",
    "tel": "06-6453-0281",
    "lat": "34.701394",
    "lng": "135.483659",
    "near": "JR環状線「福島」徒歩8分／JR東西線「新福島」徒歩10分／阪神「福島」徒歩10分／京阪「中之島」徒歩20分／JR「大阪」・阪急「十三」からバス「福島7丁目前」下車",
    "course1": "普通科",
    "course2": "",
    "course3": "",
    "course4": "",
    "course5": "",
    "course6": ""
  },
  {
    "id": "46",
    "name": "金蘭千里高等学校",
    "ruby": "きんらんせんりこうとうがっこう",
    "site": "http://www.kinransenri.ed.jp",
    "address": "大阪府吹田市藤白台5-25-2",
    "label": "私立",
    "education": "共学校",
    "course": "普通科",
    "tel": "06-6872-0263",
    "lat": "34.825771",
    "lng": "135.515399",
    "near": "阪急千里線「北千里」北東徒歩10分／北大阪急行・大阪モノレール「千里中央」から阪急バス「金蘭会学園前」下車すぐ",
    "course1": "普通科",
    "course2": "",
    "course3": "",
    "course4": "",
    "course5": "",
    "course6": ""
  },
  {
    "id": "47",
    "name": "建国高等学校",
    "ruby": "けんこくこうとうがっこう",
    "site": "http://www.keonguk.ac.jp",
    "address": "大阪府大阪市住吉区遠里小野2-3-13",
    "label": "私立",
    "education": "共学校",
    "course": "普通科",
    "tel": "06-6691-1231",
    "lat": "34.597526",
    "lng": "135.499706",
    "near": "JR阪和線「杉本町」西北徒歩7分／南海高野線「我孫子前」東南徒歩7分／大阪市バス「山之内1丁目」下車南50ｍ",
    "course1": "普通科",
    "course2": "",
    "course3": "",
    "course4": "",
    "course5": "",
    "course6": ""
  },
  {
    "id": "48",
    "name": "賢明学院高等学校",
    "ruby": "けんめいがくいんこうとうがっこう",
    "site": "https://kenmei.jp",
    "address": "大阪府堺市堺区霞ｹ丘町4-3-30",
    "label": "私立",
    "education": "共学校",
    "course": "普通科",
    "tel": "072-241-1679",
    "lat": "34.552995",
    "lng": "135.467781",
    "near": "JR阪和線「上野芝」徒歩13分／南海高野線「堺東」から南海バス「霞ケ丘」「南陵通一丁」下車徒歩3分",
    "course1": "普通科",
    "course2": "",
    "course3": "",
    "course4": "",
    "course5": "",
    "course6": ""
  },
  {
    "id": "49",
    "name": "賢明学院高等学校",
    "ruby": "けんめいがくいんこうとうがっこう",
    "site": "https://kenmei.jp/correspondencecourse/",
    "address": "大阪府堺市堺区霞ｹ丘町4-3-30",
    "label": "私立",
    "education": "共学校",
    "course": "通信制",
    "tel": "072-241-2111",
    "lat": "34.552995",
    "lng": "135.467781",
    "near": "JR阪和線「上野芝」徒歩13分／南海高野線「堺東」から南海バス「霞ケ丘」「南陵通一丁」下車徒歩3分",
    "course1": "通信制",
    "course2": "",
    "course3": "",
    "course4": "",
    "course5": "",
    "course6": ""
  },
  {
    "id": "50",
    "name": "興國高等学校",
    "ruby": "こうこくこうとうがっこう",
    "site": "http://www.kokoku.ed.jp/",
    "address": "大阪府大阪市天王寺区寺田町1-4-26",
    "label": "私立",
    "education": "男子校",
    "course": "ITビジネス科、普通科",
    "tel": "06-6779-8151",
    "lat": "34.652518",
    "lng": "135.521625",
    "near": "JR環状線「寺田町」徒歩7分",
    "course1": "ITビジネス科",
    "course2": "普通科",
    "course3": "",
    "course4": "",
    "course5": "",
    "course6": ""
  },
  {
    "id": "51",
    "name": "神須学園高等学校",
    "ruby": "こうずがくえんこうとうがっこう",
    "site": "https://www.kozu-gakuen.ed.jp/",
    "address": "大阪府岸和田市野田町1-7-12",
    "label": "私立",
    "education": "共学校",
    "course": "通信制",
    "tel": "072-493-3977",
    "lat": "34.459455",
    "lng": "135.378183",
    "near": "南海本線「岸和田」徒歩2分",
    "course1": "通信制",
    "course2": "",
    "course3": "",
    "course4": "",
    "course5": "",
    "course6": ""
  },
  {
    "id": "52",
    "name": "好文学園女子高等学校",
    "ruby": "こうぶんがくえんじょしこうとうがっこう",
    "site": "https://koubun.ed.jp/",
    "address": "大阪府大阪市西淀川区千舟3-8-22",
    "label": "私立",
    "education": "女子校",
    "course": "普通科",
    "tel": "06-6472-2281",
    "lat": "34.710151",
    "lng": "135.448501",
    "near": "JR東西線「御幣島」徒歩約12分／阪神本線「千船」徒歩約6分／阪神なんば線「出来島」徒歩約15分",
    "course1": "普通科",
    "course2": "",
    "course3": "",
    "course4": "",
    "course5": "",
    "course6": ""
  },
  {
    "id": "53",
    "name": "向陽台高等学校",
    "ruby": "こうようだいこうとうがっこう",
    "site": "http://www.koyodai.ed.jp",
    "address": "大阪府茨木市宿久庄7-20-1",
    "label": "私立",
    "education": "共学校",
    "course": "通信制",
    "tel": "072-643-6681",
    "lat": "34.846013",
    "lng": "135.528846",
    "near": "モノレール「彩都西」徒歩10分／JR「茨木」・阪急「茨木市」「北千里」「石橋」・モノレール「千里中央」各駅よりスクールバス",
    "course1": "通信制",
    "course2": "",
    "course3": "",
    "course4": "",
    "course5": "",
    "course6": ""
  },
  {
    "id": "54",
    "name": "香里ヌヴェール学院高等学校",
    "ruby": "こうりぬう゛ぇーるがくいんこうとうがっこう",
    "site": "http://www.seibo.ed.jp/nevers-hs/",
    "address": "大阪府寝屋川市美井町18-10",
    "label": "私立",
    "education": "共学校",
    "course": "普通科",
    "tel": "072-831-8452",
    "lat": "34.780951",
    "lng": "135.636215",
    "near": "京阪「香里園」徒歩8分",
    "course1": "普通科",
    "course2": "",
    "course3": "",
    "course4": "",
    "course5": "",
    "course6": ""
  },
  {
    "id": "55",
    "name": "金光大阪高等学校",
    "ruby": "こんこうおおさかこうとうがっこう",
    "site": "http://www.kohs.ed.jp/",
    "address": "大阪府高槻市東上牧1-3-1",
    "label": "私立",
    "education": "共学校",
    "course": "普通科",
    "tel": "072-669-5211",
    "lat": "34.868881",
    "lng": "135.663318",
    "near": "阪急京都線「上牧」南徒歩3分／JR京都線「島本」徒歩18分",
    "course1": "普通科",
    "course2": "",
    "course3": "",
    "course4": "",
    "course5": "",
    "course6": ""
  },
  {
    "id": "56",
    "name": "金光藤蔭高等学校",
    "ruby": "こんこうとういんこうとうがっこう",
    "site": "http://www.konkoutouin.ed.jp",
    "address": "大阪府大阪市生野区小路東4-1-26",
    "label": "私立",
    "education": "共学校",
    "course": "普通科",
    "tel": "06-6751-2461",
    "lat": "34.65736",
    "lng": "135.556561",
    "near": "大阪メトロ千日前線「小路」5分／近鉄大阪線「布施」15分",
    "course1": "普通科",
    "course2": "",
    "course3": "",
    "course4": "",
    "course5": "",
    "course6": ""
  },
  {
    "id": "57",
    "name": "金光八尾高等学校",
    "ruby": "こんこうやおこうとうがっこう",
    "site": "http://www.konkoyao.ed.jp",
    "address": "大阪府八尾市柏村町1-63",
    "label": "私立",
    "education": "共学校",
    "course": "普通科",
    "tel": "072-922-9162",
    "lat": "34.61365",
    "lng": "135.622572",
    "near": "近鉄大阪線「高安」南西徒歩10分・「恩智」北西徒歩7分",
    "course1": "普通科",
    "course2": "",
    "course3": "",
    "course4": "",
    "course5": "",
    "course6": ""
  },
  {
    "id": "58",
    "name": "堺リベラル高等学校",
    "ruby": "さかいりべらるこうとうがっこう",
    "site": "http://www.liberal.ed.jp/",
    "address": "大阪府大阪府堺市堺区浅香山町1-2-20",
    "label": "私立",
    "education": "女子校",
    "course": "表現教育科",
    "tel": "072-275-7688",
    "lat": "34.584265",
    "lng": "135.497418",
    "near": "JR阪和線「堺市」徒歩10分／南海高野線「浅香山」徒歩12分／大阪メトロ御堂筋線「北花田」からバス「愛泉学園前」下車",
    "course1": "表現教育科",
    "course2": "",
    "course3": "",
    "course4": "",
    "course5": "",
    "course6": ""
  },
  {
    "id": "59",
    "name": "四條畷学園高等学校",
    "ruby": "しじょうなわてがくえんこうとうがっこう",
    "site": "http://jh.shijonawate-gakuen.ac.jp/",
    "address": "大阪府大東市学園町6-45",
    "label": "私立",
    "education": "共学校",
    "course": "普通科",
    "tel": "072-876-1327",
    "lat": "34.731062",
    "lng": "135.640507",
    "near": "JR学研都市線「四条畷」徒歩1分",
    "course1": "普通科",
    "course2": "",
    "course3": "",
    "course4": "",
    "course5": "",
    "course6": ""
  },
  {
    "id": "60",
    "name": "四天王寺高等学校",
    "ruby": "してんのうじこうとうがっこう",
    "site": "http://www.shitennoji.ac.jp",
    "address": "大阪府大阪市天王寺区四天王寺1-11-73",
    "label": "私立",
    "education": "女子校",
    "course": "普通科",
    "tel": "06-6772-6201",
    "lat": "34.65464",
    "lng": "135.514515",
    "near": "JR「天王寺」北徒歩10分／大阪メトロ谷町線「四天王寺前夕陽ケ丘」4番出口南徒歩5分",
    "course1": "普通科",
    "course2": "",
    "course3": "",
    "course4": "",
    "course5": "",
    "course6": ""
  },
  {
    "id": "61",
    "name": "四天王寺東高等学校",
    "ruby": "してんのうじひがしこうとうがっこう",
    "site": "http://www.shitennojigakuen.ed.jp/sgjh/",
    "address": "大阪府大阪府藤井寺市春日丘3-1-78",
    "label": "私立",
    "education": "共学校",
    "course": "普通科",
    "tel": "072-937-2855",
    "lat": "34.570921",
    "lng": "135.591023",
    "near": "近鉄南大阪線「藤井寺」下車3分",
    "course1": "普通科",
    "course2": "",
    "course3": "",
    "course4": "",
    "course5": "",
    "course6": ""
  },
  {
    "id": "62",
    "name": "秋桜高等学校",
    "ruby": "しゅうおうこうとうがっこう",
    "site": "https://www.shuoh.ed.jp/index.html",
    "address": "大阪府貝塚市新町2-10",
    "label": "私立",
    "education": "共学校",
    "course": "通信制",
    "tel": "072-432-6007",
    "lat": "34.443573",
    "lng": "135.354306",
    "near": "南海本線「貝塚」南西徒歩5分",
    "course1": "通信制",
    "course2": "",
    "course3": "",
    "course4": "",
    "course5": "",
    "course6": ""
  },
  {
    "id": "63",
    "name": "樟蔭高等学校",
    "ruby": "しょういんこうとうがっこう",
    "site": "http://www.osaka-shoin.ac.jp/hs",
    "address": "大阪府東大阪市菱屋西4-2-26",
    "label": "私立",
    "education": "女子校",
    "course": "普通科",
    "tel": "06-6723-8185",
    "lat": "34.662615",
    "lng": "135.577783",
    "near": "近鉄奈良線「河内小阪」徒歩3分／JRおおさか東線「河内永和」徒歩5分",
    "course1": "普通科",
    "course2": "",
    "course3": "",
    "course4": "",
    "course5": "",
    "course6": ""
  },
  {
    "id": "64",
    "name": "常翔学園高等学校",
    "ruby": "じょうしょうがくえんこうとうがっこう",
    "site": "http://www.highs.josho.ac.jp/",
    "address": "大阪府大阪市旭区大宮5-16-1",
    "label": "私立",
    "education": "共学校",
    "course": "普通科",
    "tel": "06-6954-4436",
    "lat": "34.730993",
    "lng": "135.545466",
    "near": "大阪メトロ谷町線「千林大宮」、大阪メトロ谷町線・今里筋線「太子橋今市」徒歩12分／京阪本線「千林」・「滝井」徒歩20分",
    "course1": "普通科",
    "course2": "",
    "course3": "",
    "course4": "",
    "course5": "",
    "course6": ""
  },
  {
    "id": "65",
    "name": "常翔啓光学園高等学校",
    "ruby": "じょうしょうけいこうがくえんこうとうがっこう",
    "site": "https://www.keiko.josho.ac.jp",
    "address": "大阪府枚方市禁野本町1-13-21",
    "label": "私立",
    "education": "共学校",
    "course": "普通科",
    "tel": "072-807-6632",
    "lat": "34.817686",
    "lng": "135.657025",
    "near": "京阪本線「枚方市」徒歩約13分・京阪本線「宮ノ阪」徒歩7分",
    "course1": "普通科",
    "course2": "",
    "course3": "",
    "course4": "",
    "course5": "",
    "course6": ""
  },
  {
    "id": "66",
    "name": "城南学園高等学校",
    "ruby": "じょうなんがくえんこうとうがっこう",
    "site": "http://www.jonan.ac.jp/chuko",
    "address": "大阪府大阪市東住吉区照ｹ丘矢田2-14-10",
    "label": "私立",
    "education": "女子校",
    "course": "普通科",
    "tel": "06-6702-9784",
    "lat": "34.607923",
    "lng": "135.537971",
    "near": "近鉄南大阪線「矢田」北東約600ｍ／大阪メトロ谷町線「喜連瓜破」西約1．1ｋｍ／大阪メトロ御堂筋線「長居」・JR阪和線「長居」から大阪市バス「湯里6丁目」下車すぐ",
    "course1": "普通科",
    "course2": "",
    "course3": "",
    "course4": "",
    "course5": "",
    "course6": ""
  },
  {
    "id": "67",
    "name": "昇陽高等学校",
    "ruby": "しょうようこうとうがっこう",
    "site": "http://www.oskshoyo.ed.jp/",
    "address": "大阪府大阪市此花区朝日1-1-9",
    "label": "私立",
    "education": "共学校",
    "course": "福祉科、普通科",
    "tel": "06-6461-0091",
    "lat": "34.684565",
    "lng": "135.462218",
    "near": "JR大阪環状線・阪神なんば線「西九条」徒歩6分／阪神なんば線「千鳥橋」徒歩5分",
    "course1": "福祉科",
    "course2": "普通科",
    "course3": "",
    "course4": "",
    "course5": "",
    "course6": ""
  },
  {
    "id": "68",
    "name": "精華高等学校",
    "ruby": "せいかこうとうがっこう",
    "site": "http://www.seika-h.ed.jp/",
    "address": "大阪府堺市中区辻之1517",
    "label": "私立",
    "education": "共学校",
    "course": "普通科",
    "tel": "072-234-3391",
    "lat": "34.510638",
    "lng": "135.515297",
    "near": "泉北高速鉄道「泉ヶ丘」「深井」から南海バス「東中学校前」下車徒歩5分／南海高野線「北野田」南海バス「高山」下車徒歩8分",
    "course1": "普通科",
    "course2": "",
    "course3": "",
    "course4": "",
    "course5": "",
    "course6": ""
  },
  {
    "id": "69",
    "name": "清教学園高等学校",
    "ruby": "せいきょうがくえんこうとうがっこう",
    "site": "https://www.seikyo.ed.jp/",
    "address": "大阪府河内長野市末広町623",
    "label": "私立",
    "education": "共学校",
    "course": "普通科",
    "tel": "0721-62-6828",
    "lat": "34.445929",
    "lng": "135.574681",
    "near": "南海・近鉄「河内長野」南東徒歩10分／南海「岸和田」「泉佐野」泉北「和泉中央」水間「水間観音」からバス",
    "course1": "普通科",
    "course2": "",
    "course3": "",
    "course4": "",
    "course5": "",
    "course6": ""
  },
  {
    "id": "70",
    "name": "星翔高等学校",
    "ruby": "せいしょうこうとうがっこう",
    "site": "http://www.osaka-seisho.ed.jp/",
    "address": "大阪府摂津市三島3-5-36",
    "label": "私立",
    "education": "共学校",
    "course": "機械工学科、電子機械工学科、電気工学科、コミュニケーションシステム工学科、普通科",
    "tel": "06-6381-0220",
    "lat": "34.78027",
    "lng": "135.555133",
    "near": "阪急京都線「正雀」東徒歩14分・「摂津市」徒歩10分／大阪モノレール「摂津」徒歩12分／JR京都線「岸辺」徒歩19　　分・「千里丘」徒歩19分",
    "course1": "機械工学科",
    "course2": "電子機械工学科",
    "course3": "電気工学科",
    "course4": "コミュニケーションシステム工学科",
    "course5": "普通科",
    "course6": ""
  },
  {
    "id": "71",
    "name": "清風高等学校",
    "ruby": "せいふうこうとうがっこう",
    "site": "https://www.seifu.ac.jp/",
    "address": "大阪府大阪市天王寺区石ヶ辻町12-16",
    "label": "私立",
    "education": "男子校",
    "course": "普通科",
    "tel": "06-6771-5757",
    "lat": "34.664025",
    "lng": "135.521622",
    "near": "大阪メトロ谷町線・千日前線「谷町九丁目」徒歩7分／近鉄線・阪神なんば線「大阪上本町」徒歩3分／JR大阪環状線「鶴橋」徒歩12分",
    "course1": "普通科",
    "course2": "",
    "course3": "",
    "course4": "",
    "course5": "",
    "course6": ""
  },
  {
    "id": "72",
    "name": "清風南海高等学校",
    "ruby": "せいふうなんかいこうとうがっこう",
    "site": "http://www.seifunankai.ac.jp",
    "address": "大阪府高石市綾園5-7-64",
    "label": "私立",
    "education": "共学校",
    "course": "普通科",
    "tel": "072-261-7761",
    "lat": "34.517084",
    "lng": "135.428257",
    "near": "南海本線「高石」徒歩7分・「北助松」徒歩5分／JR阪和線「北信太」徒歩20分",
    "course1": "普通科",
    "course2": "",
    "course3": "",
    "course4": "",
    "course5": "",
    "course6": ""
  },
  {
    "id": "73",
    "name": "清明学院高等学校",
    "ruby": "せいめいがくいんこうとうがっこう",
    "site": "http://www.seimei.ed.jp",
    "address": "大阪府大阪市住吉区墨江2-4-4",
    "label": "私立",
    "education": "共学校",
    "course": "普通科",
    "tel": "06-6673-8181",
    "lat": "34.607511",
    "lng": "135.495053",
    "near": "南海高野線「沢ノ町」徒歩4分／南海本線「住吉大社」徒歩12分",
    "course1": "普通科",
    "course2": "",
    "course3": "",
    "course4": "",
    "course5": "",
    "course6": ""
  },
  {
    "id": "74",
    "name": "宣真高等学校",
    "ruby": "せんしんこうとうがっこう",
    "site": "http://senshin-gakuen.jp",
    "address": "大阪府池田市荘園2-3-12",
    "label": "私立",
    "education": "女子校",
    "course": "普通科",
    "tel": "072-761-8801",
    "lat": "34.810488",
    "lng": "135.437633",
    "near": "阪急宝塚線「石橋阪大前」徒歩約10分",
    "course1": "普通科",
    "course2": "",
    "course3": "",
    "course4": "",
    "course5": "",
    "course6": ""
  },
  {
    "id": "75",
    "name": "相愛高等学校",
    "ruby": "そうあいこうとうがっこう",
    "site": "http://www.soai.ed.jp/",
    "address": "大阪府大阪市中央区本町4-1-23",
    "label": "私立",
    "education": "女子校",
    "course": "音楽科、普通科",
    "tel": "06-6262-0621",
    "lat": "34.684147",
    "lng": "135.499316",
    "near": "大阪メトロ御堂筋線「本町」4号出口すぐ",
    "course1": "音楽科",
    "course2": "普通科",
    "course3": "",
    "course4": "",
    "course5": "",
    "course6": ""
  },
  {
    "id": "76",
    "name": "大商学園高等学校",
    "ruby": "だいしょうがくえんこうとうがっこう",
    "site": "http://www.daisho.ac.jp",
    "address": "大阪府豊中市利倉東1-2-1",
    "label": "私立",
    "education": "共学校",
    "course": "商業科、普通科",
    "tel": "06-6862-5223",
    "lat": "34.764398",
    "lng": "135.465331",
    "near": "阪急宝塚線「服部天神」西へ徒歩10分",
    "course1": "商業科",
    "course2": "普通科",
    "course3": "",
    "course4": "",
    "course5": "",
    "course6": ""
  },
  {
    "id": "77",
    "name": "太成学院大学高等学校",
    "ruby": "たいせいがくいんだいがくこうとうがっこう",
    "site": "http://www.taisei-hs.ac.jp",
    "address": "大阪府大東市諸福7-2-23",
    "label": "私立",
    "education": "共学校",
    "course": "スポーツ科、普通科",
    "tel": "072-871-1921",
    "lat": "34.70415",
    "lng": "135.59745",
    "near": "JR学研都市線「鴻池新田」北徒歩7分",
    "course1": "スポーツ科",
    "course2": "普通科",
    "course3": "",
    "course4": "",
    "course5": "",
    "course6": ""
  },
  {
    "id": "78",
    "name": "高槻高等学校",
    "ruby": "たかつきこうとうがっこう",
    "site": "https://www.takatsuki.ed.jp",
    "address": "大阪府高槻市沢良木町2-5",
    "label": "私立",
    "education": "共学校",
    "course": "普通科",
    "tel": "072-671-0001",
    "lat": "34.847321",
    "lng": "135.629705",
    "near": "阪急「高槻市」徒歩7分／JR「高槻」徒歩16分／京阪「枚方市」から京阪バス「松原」下車すぐ",
    "course1": "普通科",
    "course2": "",
    "course3": "",
    "course4": "",
    "course5": "",
    "course6": ""
  },
  {
    "id": "79",
    "name": "帝塚山学院高等学校",
    "ruby": "てづかやまがくいんこうとうがっこう",
    "site": "http://www.tezukayama.ac.jp/cyu_kou",
    "address": "大阪府大阪市住吉区帝塚山中3-10-51",
    "label": "私立",
    "education": "女子校",
    "course": "普通科",
    "tel": "06-6672-1151",
    "lat": "34.620498",
    "lng": "135.498311",
    "near": "南海高野線「帝塚山」下車すぐ／阪堺上町線「帝塚山三丁目」徒歩2分",
    "course1": "普通科",
    "course2": "",
    "course3": "",
    "course4": "",
    "course5": "",
    "course6": ""
  },
  {
    "id": "80",
    "name": "帝塚山学院泉ヶ丘高等学校",
    "ruby": "てづかやまがくいんいずみがおかこうとうがっこう",
    "site": "http://www.tezuka-i-h.jp",
    "address": "大阪府堺市南区晴美台4-2-1",
    "label": "私立",
    "education": "共学校",
    "course": "普通科",
    "tel": "072-293-1221",
    "lat": "34.489011",
    "lng": "135.531757",
    "near": "泉北高速鉄道「泉ヶ丘」から南海バス「帝塚山学院泉ヶ丘校前」下車",
    "course1": "普通科",
    "course2": "",
    "course3": "",
    "course4": "",
    "course5": "",
    "course6": ""
  },
  {
    "id": "81",
    "name": "天王寺学館高等学校",
    "ruby": "てんのうじがっかんこうとうがっこう",
    "site": "http://www.tg-group.ac.jp/tgkoko",
    "address": "大阪府大阪市平野区平野北1-10-43",
    "label": "私立",
    "education": "共学校",
    "course": "通信制",
    "tel": "06-6795-1860",
    "lat": "34.63137",
    "lng": "135.552064",
    "near": "JR大和路線「平野」駅前／大阪メトロ千日前線「南巽」より479号線を南に徒歩約20分／大阪メトロ谷町線「平野」より479号線を北に徒歩約20分",
    "course1": "通信制",
    "course2": "",
    "course3": "",
    "course4": "",
    "course5": "",
    "course6": ""
  },
  {
    "id": "82",
    "name": "東海大学付属大阪仰星高等学校",
    "ruby": "とうかいだいがくふぞくおおさかぎょうせいこうとうがっこう",
    "site": "http://www.tokai.ed.jp/gyosei/",
    "address": "大阪府枚方市桜丘町60-1",
    "label": "私立",
    "education": "共学校",
    "course": "普通科",
    "tel": "072-849-7211",
    "lat": "34.805995",
    "lng": "135.669563",
    "near": "京阪交野線「村野」徒歩10分／近鉄学園前～登美が丘～白庭台～田原台スクールバス",
    "course1": "普通科",
    "course2": "",
    "course3": "",
    "course4": "",
    "course5": "",
    "course6": ""
  },
  {
    "id": "83",
    "name": "同志社香里高等学校",
    "ruby": "どうししゃこうりこうとうがっこう",
    "site": "http://www.kori.doshisha.ac.jp",
    "address": "大阪府寝屋川市三井南町15-1",
    "label": "私立",
    "education": "共学校",
    "course": "普通科",
    "tel": "072-831-0285",
    "lat": "34.773487",
    "lng": "135.635891",
    "near": "京阪「香里園」南東徒歩約18分",
    "course1": "普通科",
    "course2": "",
    "course3": "",
    "course4": "",
    "course5": "",
    "course6": ""
  },
  {
    "id": "84",
    "name": "東朋学園高等学校",
    "ruby": "とうほうがくえんこうとうがっこう",
    "site": "http://www.okazakitoho.ed.jp/",
    "address": "大阪府大阪市天王寺区城南寺町7-28",
    "label": "私立",
    "education": "共学校",
    "course": "通信制",
    "tel": "06-6761-3111",
    "lat": "34.669412",
    "lng": "135.522269",
    "near": "近鉄大阪線「大阪上本町駅」徒歩約7　分／大阪メトロ「谷町九丁目」11番出口徒歩約10分／JR大阪環状線「鶴橋」中央改札徒歩約13分／大阪シティバス「上本町六丁目」バス停徒歩約7分",
    "course1": "通信制",
    "course2": "",
    "course3": "",
    "course4": "",
    "course5": "",
    "course6": ""
  },
  {
    "id": "85",
    "name": "長尾谷高等学校",
    "ruby": "ながおだにこうとうがっこう",
    "site": "http://www.nagaodani.ed.jp",
    "address": "大阪府枚方市長尾元町2-29-27",
    "label": "私立",
    "education": "共学校",
    "course": "通信制",
    "tel": "072-850-9111",
    "lat": "34.826514",
    "lng": "135.707514",
    "near": "阪急「中津」南西350ｍ／JR「大阪」北1200ｍ／大阪メトロ「中津」南西850ｍ／阪急「大阪梅田」西1500ｍ",
    "course1": "通信制",
    "course2": "",
    "course3": "",
    "course4": "",
    "course5": "",
    "course6": ""
  },
  {
    "id": "86",
    "name": "浪速高等学校",
    "ruby": "なにわこうとうがっこう",
    "site": "http://www.naniwa.ed.jp/",
    "address": "大阪府大阪市住吉区山之内2-13-57",
    "label": "私立",
    "education": "共学校",
    "course": "普通科",
    "tel": "06-6693-4031",
    "lat": "34.598002",
    "lng": "135.50111",
    "near": "大阪メトロ御堂筋線「あびこ」徒歩約14分／JR阪和線「我孫子町」「杉本町」徒歩9分／南海高野線「我孫子前」徒歩6分",
    "course1": "普通科",
    "course2": "",
    "course3": "",
    "course4": "",
    "course5": "",
    "course6": ""
  },
  {
    "id": "87",
    "name": "梅花高等学校",
    "ruby": "ばいかこうとうがっこう",
    "site": "http://www.baika-jh.ed.jp",
    "address": "大阪府豊中市上野西1-5-30",
    "label": "私立",
    "education": "女子校",
    "course": "普通科",
    "tel": "06-6852-0001",
    "lat": "34.790501",
    "lng": "135.47151",
    "near": "阪急宝塚線「豊中」徒歩約13分／北大阪急行「千里中央」「桃山台」から阪急バス「梅花学園前」下車すぐ／大阪モノレール「少路」からスクールバス20分",
    "course1": "普通科",
    "course2": "",
    "course3": "",
    "course4": "",
    "course5": "",
    "course6": ""
  },
  {
    "id": "88",
    "name": "羽衣学園高等学校",
    "ruby": "はごろもがくえんこうとうがっこう",
    "site": "http://www.hagoromogakuen.ed.jp/",
    "address": "大阪府高石市東羽衣1-11-57",
    "label": "私立",
    "education": "共学校",
    "course": "普通科",
    "tel": "072-265-7561",
    "lat": "34.534582",
    "lng": "135.445209",
    "near": "南海「羽衣」・JR阪和線「東羽衣」徒歩4分",
    "course1": "普通科",
    "course2": "",
    "course3": "",
    "course4": "",
    "course5": "",
    "course6": ""
  },
  {
    "id": "89",
    "name": "初芝富田林高等学校",
    "ruby": "はつしばとんだばやしこうとうがっこう",
    "site": "http://www.hatsushiba.ed.jp/tondabayashi/",
    "address": "大阪府富田林市彼方1801",
    "label": "私立",
    "education": "共学校",
    "course": "普通科",
    "tel": "0721-34-1010",
    "lat": "34.471304",
    "lng": "135.589974",
    "near": "近鉄長野線「滝谷不動」南東徒歩20分／南海「河内長野」・近鉄長野線「滝谷不動」・泉北高速鉄道「泉ヶ丘」・「和泉中央」・南海本線「岸和田」・JR阪和線「和泉府中」・「久米田」からスクールバス",
    "course1": "普通科",
    "course2": "",
    "course3": "",
    "course4": "",
    "course5": "",
    "course6": ""
  },
  {
    "id": "90",
    "name": "初芝立命館高等学校",
    "ruby": "はつしばりつめいかんこうとうがっこう",
    "site": "http://www.hatsushiba.ed.jp/ritsumeikan/",
    "address": "大阪府堺市東区西野194-1",
    "label": "私立",
    "education": "共学校",
    "course": "体育科、普通科",
    "tel": "072-235-3900",
    "lat": "34.511311",
    "lng": "135.542601",
    "near": "南海高野線「北野田」徒歩15分",
    "course1": "体育科",
    "course2": "普通科",
    "course3": "",
    "course4": "",
    "course5": "",
    "course6": ""
  },
  {
    "id": "91",
    "name": "阪南大学高等学校",
    "ruby": "はんなんだいがくこうとうがっこう",
    "site": "http://www.hdk.ed.jp/",
    "address": "大阪府松原市河合2-10-65",
    "label": "私立",
    "education": "共学校",
    "course": "普通科",
    "tel": "072-332-1221",
    "lat": "34.570294",
    "lng": "135.544074",
    "near": "「天王寺」「大阪阿部野橋」約20分／堺・堺市・堺東から南海バス「高見ノ里」下車",
    "course1": "普通科",
    "course2": "",
    "course3": "",
    "course4": "",
    "course5": "",
    "course6": ""
  },
  {
    "id": "92",
    "name": "PL学園高等学校",
    "ruby": "びーえるがくえんこうとうがっこう",
    "site": "https://web.pl-gakuen.ac.jp/",
    "address": "大阪府富田林市喜志2055",
    "label": "私立",
    "education": "共学校",
    "course": "普通科",
    "tel": "0721-24-5132",
    "lat": "34.52244",
    "lng": "135.595582",
    "near": "近鉄長野線「喜志」西徒歩15分",
    "course1": "普通科",
    "course2": "",
    "course3": "",
    "course4": "",
    "course5": "",
    "course6": ""
  },
  {
    "id": "93",
    "name": "東大阪大学柏原高等学校",
    "ruby": "ひがしおおさかだいがくかしわらこうとうがっこう",
    "site": "http://www.kashiwara.ed.jp/",
    "address": "大阪府柏原市本郷5-993",
    "label": "私立",
    "education": "男子校",
    "course": "普通科",
    "tel": "072-972-1565",
    "lat": "34.590597",
    "lng": "135.609328",
    "near": "JR大和路線「志紀」・「柏原」徒歩15分／近鉄大阪線「法善寺」「堅下」徒歩20分／近鉄道明寺線「柏原」徒歩5分",
    "course1": "普通科",
    "course2": "",
    "course3": "",
    "course4": "",
    "course5": "",
    "course6": ""
  },
  {
    "id": "94",
    "name": "東大阪大学敬愛高等学校",
    "ruby": "ひがしおおさかだいがくけいあいこうとうがっこう",
    "site": "http://www.higashiosaka-hs.ac.jp/keiai",
    "address": "大阪府東大阪市西堤学園町3-1-1",
    "label": "私立",
    "education": "共学校",
    "course": "普通科",
    "tel": "06-6782-2881",
    "lat": "34.676379",
    "lng": "135.581047",
    "near": "JRおおさか東線「高井田中央」徒歩15分／近鉄奈良線「河内小阪」徒歩15分・近鉄バス「東大阪大学前」下車徒歩10分／大阪メトロ中央線「高井田」・「長田」徒歩15分",
    "course1": "普通科",
    "course2": "",
    "course3": "",
    "course4": "",
    "course5": "",
    "course6": ""
  },
  {
    "id": "95",
    "name": "東大谷高等学校",
    "ruby": "ひがしおおたにこうとうがっこう",
    "site": "http://www.higashiohtani.ac.jp",
    "address": "大阪府堺市南区三原台 2-2-2",
    "label": "私立",
    "education": "共学校",
    "course": "普通科",
    "tel": "072-289-8069",
    "lat": "34.501871",
    "lng": "135.513995",
    "near": "泉北高速鉄道「泉ケ丘」徒歩8分",
    "course1": "普通科",
    "course2": "",
    "course3": "",
    "course4": "",
    "course5": "",
    "course6": ""
  },
  {
    "id": "96",
    "name": "プール学院高等学校",
    "ruby": "ぷーるがくいんこうとうがっこう",
    "site": "http://www.poole.ed.jp",
    "address": "大阪府大阪市生野区勝山北1-19-31",
    "label": "私立",
    "education": "女子校",
    "course": "普通科",
    "tel": "06-6741-7005",
    "lat": "34.655027",
    "lng": "135.528072",
    "near": "JR環状線「桃谷」徒歩7分",
    "course1": "普通科",
    "course2": "",
    "course3": "",
    "course4": "",
    "course5": "",
    "course6": ""
  },
  {
    "id": "97",
    "name": "箕面学園高等学校",
    "ruby": "みのおがくえんこうとうがっこう",
    "site": "http://www.minohgakuen.ed.jp",
    "address": "大阪府箕面市箕面7-7-31",
    "label": "私立",
    "education": "共学校",
    "course": "普通科",
    "tel": "072-723-6551",
    "lat": "34.834972",
    "lng": "135.46443",
    "near": "阪急箕面線「箕面」西へ徒歩5分／御堂筋線・大阪モノレール「千里中央」から阪急バス「箕面」下車西へ徒歩5分",
    "course1": "普通科",
    "course2": "",
    "course3": "",
    "course4": "",
    "course5": "",
    "course6": ""
  },
  {
    "id": "98",
    "name": "箕面自由学園高等学校",
    "ruby": "みのおじゆうがくえんこうとうがっこう",
    "site": "https://mino-jiyu.ed.jp/",
    "address": "大阪府豊中市宮山町4-21-1",
    "label": "私立",
    "education": "共学校",
    "course": "普通科",
    "tel": "06-6852-8110",
    "lat": "34.811672",
    "lng": "135.463124",
    "near": "阪急箕面線「桜井」南徒歩約7分／御堂筋線・大阪モノレール「千里中央」から阪急バス「春日町4丁目」下車徒歩約7分／大阪モノレール「柴原」徒歩約20分／JR京都線「茨木」から阪急バス「南桜井」下車すぐ",
    "course1": "普通科",
    "course2": "",
    "course3": "",
    "course4": "",
    "course5": "",
    "course6": ""
  },
  {
    "id": "99",
    "name": "明浄学院高等学校",
    "ruby": "めいじょうがくいんこうとうがっこう",
    "site": "http://www.meijo.ed.jp",
    "address": "大阪府大阪市阿倍野区文の里3-15-7",
    "label": "私立",
    "education": "共学校",
    "course": "普通科、看護科",
    "tel": "06-6623-0016",
    "lat": "34.63559",
    "lng": "135.521372",
    "near": "大阪メトロ谷町線「文の里」東徒歩3分／大阪メトロ御堂筋線「昭和町」北東徒歩6分／JR阪和線「美章園」南西徒歩5分／近鉄南大阪線「北田辺」北西徒歩10分",
    "course1": "普通科",
    "course2": "看護科",
    "course3": "",
    "course4": "",
    "course5": "",
    "course6": ""
  },
  {
    "id": "100",
    "name": "明星高等学校",
    "ruby": "みょうじょうこうとうがっこう",
    "site": "http://www.meisei.ed.jp",
    "address": "大阪府大阪市天王寺区餌差町5-44",
    "label": "私立",
    "education": "男子校",
    "course": "普通科",
    "tel": "06-6761-5606",
    "lat": "34.672371",
    "lng": "135.52506",
    "near": "JR大阪環状線「玉造」徒歩10分／大阪メトロ長堀鶴見緑地線「玉造」徒歩7分／近鉄「大阪上本町」徒歩12分／大阪メトロ谷町線「谷町六丁目」徒歩12分",
    "course1": "普通科",
    "course2": "",
    "course3": "",
    "course4": "",
    "course5": "",
    "course6": ""
  },
  {
    "id": "101",
    "name": "桃山学院高等学校",
    "ruby": "ももやまがくいんこうとうがっこう",
    "site": "http://www.momoyamagakuin-h.ed.jp/",
    "address": "大阪府大阪市阿倍野区昭和町3-1-64",
    "label": "私立",
    "education": "共学校",
    "course": "普通科",
    "tel": "06-6621-1181",
    "lat": "34.629445",
    "lng": "135.516578",
    "near": "大阪メトロ御堂筋線「昭和町」徒歩5分／大阪メトロ谷町線「文の里」徒歩8分／JR阪和線「南田辺」徒歩10分",
    "course1": "普通科",
    "course2": "",
    "course3": "",
    "course4": "",
    "course5": "",
    "course6": ""
  },
  {
    "id": "102",
    "name": "八洲学園高等学校",
    "ruby": "やしまがくえんこうとうがっこう",
    "site": "http://www.yashima.ac.jp/hs/",
    "address": "大阪府堺市西区鳳中町8-3-25",
    "label": "私立",
    "education": "共学校",
    "course": "通信制",
    "tel": "072-262-8281",
    "lat": "34.534687",
    "lng": "135.453022",
    "near": "JR「鳳」西出口より徒歩8分",
    "course1": "通信制",
    "course2": "",
    "course3": "",
    "course4": "",
    "course5": "",
    "course6": ""
  },
  {
    "id": "103",
    "name": "履正社高等学校",
    "ruby": "りせいしゃこうとうがっこう",
    "site": "http://riseisha.ed.jp/h_school/",
    "address": "大阪府豊中市長興寺南4-3-19",
    "label": "私立",
    "education": "共学校",
    "course": "普通科",
    "tel": "06-6864-0456",
    "lat": "34.775291",
    "lng": "135.480309",
    "near": "阪急宝塚線「曽根」東へ徒歩15分／北大阪急行「緑地公園駅」西へ徒歩18分",
    "course1": "普通科",
    "course2": "",
    "course3": "",
    "course4": "",
    "course5": "",
    "course6": ""
  },
  {
    "id": "104",
    "name": "YMCA学院高等学校",
    "ruby": "わいえむしいえいがくいんこうとうがっこう",
    "site": "http://www.ymcagakuin.ac.jp",
    "address": "大阪府大阪市天王寺区生玉寺町1-3",
    "label": "私立",
    "education": "共学校",
    "course": "通信制",
    "tel": "06-6779-5690",
    "lat": "34.663032",
    "lng": "135.5147",
    "near": "大阪メトロ谷町線・千日前線「谷町九丁目」3番出口より徒歩4分／大阪メトロ谷町線「四天王寺前夕陽ヶ丘」徒歩7分／近鉄「大阪上本町」徒歩約7分",
    "course1": "通信制",
    "course2": "",
    "course3": "",
    "course4": "",
    "course5": "",
    "course6": ""
  },
  {
    "id": "105",
    "name": "早稲田摂陵高等学校",
    "ruby": "わせだせつりょうこうとうがっこう",
    "site": "http://www.waseda-setsuryo.ed.jp",
    "address": "大阪府茨木市宿久庄7-20-1",
    "label": "私立",
    "education": "共学校",
    "course": "普通科",
    "tel": "072-643-6363",
    "lat": "34.846013",
    "lng": "135.528846",
    "near": "阪急「茨木市」「北千里」「石橋」／北大阪急行・大阪モノレール「千里中央」／JR「茨木」からスクールバス／大阪モノレール「彩都西」から阪急バス「彩都あさぎ三丁目」下車徒歩1分",
    "course1": "普通科",
    "course2": "",
    "course3": "",
    "course4": "",
    "course5": "",
    "course6": ""
  },
  {
    "id": "106",
    "name": "芥川高等学校",
    "ruby": "あくたがわこうとうがっこう",
    "site": "https://www.osaka-c.ed.jp/akutagawa/",
    "address": "大阪府高槻市浦堂1-12-1",
    "label": "公立",
    "education": "共学校",
    "course": "普通科",
    "tel": "072-689-0109",
    "lat": "34.861548",
    "lng": "135.601541",
    "near": "JR「高槻」より高槻市バス「緑ヶ丘」下車北西250ｍ",
    "course1": "普通科",
    "course2": "",
    "course3": "",
    "course4": "",
    "course5": "",
    "course6": ""
  },
  {
    "id": "107",
    "name": "旭高等学校",
    "ruby": "あさひこうとうがっこう",
    "site": "https://www.osaka-c.ed.jp/asahi/",
    "address": "大阪府大阪市旭区高殿5-6-41",
    "label": "公立",
    "education": "共学校",
    "course": "普通科、国際教養科",
    "tel": "06-6951-3133",
    "lat": "34.719211",
    "lng": "135.541845",
    "near": "京阪「関目」徒歩12分・「森小路」徒歩13分／大阪メトロ谷町線「関目高殿」徒歩5番出口7分／大阪メトロ今里筋線「関目成育」徒歩12分",
    "course1": "普通科",
    "course2": "国際教養科",
    "course3": "",
    "course4": "",
    "course5": "",
    "course6": ""
  },
  {
    "id": "108",
    "name": "芦間高等学校",
    "ruby": "あしまこうとうがっこう",
    "site": "https://www.osaka-c.ed.jp/ashima/",
    "address": "大阪府守口市外島町1-43",
    "label": "公立",
    "education": "共学校",
    "course": "総合学科",
    "tel": "06-6993-7687",
    "lat": "34.741705",
    "lng": "135.563096",
    "near": "大阪メトロ谷町線「守口」北400ｍ／京阪「守口市」北900ｍ",
    "course1": "総合学科",
    "course2": "",
    "course3": "",
    "course4": "",
    "course5": "",
    "course6": ""
  },
  {
    "id": "109",
    "name": "阿武野高等学校",
    "ruby": "あぶのこうとうがっこう",
    "site": "https://www.osaka-c.ed.jp/abuno/",
    "address": "大阪府高槻市氷室町3-38-1",
    "label": "公立",
    "education": "共学校",
    "course": "普通科",
    "tel": "072-693-4670",
    "lat": "34.848037",
    "lng": "135.585335",
    "near": "JR「摂津富田」からバス「氷室」下車西300ｍ",
    "course1": "普通科",
    "course2": "",
    "course3": "",
    "course4": "",
    "course5": "",
    "course6": ""
  },
  {
    "id": "110",
    "name": "阿倍野高等学校",
    "ruby": "あべのこうとうがっこう",
    "site": "https://www.osaka-c.ed.jp/abeno/",
    "address": "大阪府大阪市阿倍野区阪南町1-30-34",
    "label": "公立",
    "education": "共学校",
    "course": "普通科",
    "tel": "06-6628-1461",
    "lat": "34.635998",
    "lng": "135.514607",
    "near": "大阪メトロ御堂筋線「昭和町」西400ｍ／大阪メトロ谷町線「文の里」西600ｍ／JR阪堺上町線「松虫」東700ｍ",
    "course1": "普通科",
    "course2": "",
    "course3": "",
    "course4": "",
    "course5": "",
    "course6": ""
  },
  {
    "id": "111",
    "name": "生野工業高等学校（2025年度募集停止）",
    "ruby": "いくのこうぎょうこうとうがっこう",
    "site": "https://www3.osaka-c.ed.jp/ikuno-t",
    "address": "大阪府大阪市生野区生野東2-3-66",
    "label": "公立",
    "education": "共学校",
    "course": "機械科、電気科、電子機械科",
    "tel": "06-6731-5551",
    "lat": "34.647329",
    "lng": "135.530614",
    "near": "JR環状線「寺田町」東800ｍ",
    "course1": "機械科",
    "course2": "電気科",
    "course3": "電子機械科",
    "course4": "",
    "course5": "",
    "course6": ""
  },
  {
    "id": "112",
    "name": "生野高等学校",
    "ruby": "いくのこうとうがっこう",
    "site": "https://www.osaka-c.ed.jp/ikuno/",
    "address": "大阪府松原市新堂1-552",
    "label": "公立",
    "education": "共学校",
    "course": "文理学科",
    "tel": "072-332-0531",
    "lat": "34.572037",
    "lng": "135.554312",
    "near": "近鉄南大阪線「河内松原」南西600ｍ",
    "course1": "文理学科",
    "course2": "",
    "course3": "",
    "course4": "",
    "course5": "",
    "course6": ""
  },
  {
    "id": "113",
    "name": "池田高等学校",
    "ruby": "いけだこうとうがっこう",
    "site": "https://www.osaka-c.ed.jp/ikeda/",
    "address": "大阪府池田市旭丘2-2-1",
    "label": "公立",
    "education": "共学校",
    "course": "普通科",
    "tel": "072-761-1131",
    "lat": "34.820091",
    "lng": "135.448372",
    "near": "阪急宝塚線「石橋阪大前」北東1．5ｋｍ",
    "course1": "普通科",
    "course2": "",
    "course3": "",
    "course4": "",
    "course5": "",
    "course6": ""
  },
  {
    "id": "114",
    "name": "泉尾工業高等学校",
    "ruby": "いずおこうぎょうこうとうがっこう",
    "site": "https://www3.osaka-c.ed.jp/izuo-t",
    "address": "大阪府大阪市大正区泉尾5-16-7",
    "label": "公立",
    "education": "共学校",
    "course": "機械科、電気科、工業化学科、セラミック科、ファッション工学科",
    "tel": "06-6552-2221",
    "lat": "34.654835",
    "lng": "135.46823",
    "near": "JR環状線「大正」・大阪メトロ「大正」から大阪市バス「泉尾四丁目」下車・「南泉尾」下車西300ｍ",
    "course1": "機械科",
    "course2": "電気科",
    "course3": "工業化学科",
    "course4": "セラミック科",
    "course5": "ファッション工学科",
    "course6": ""
  },
  {
    "id": "115",
    "name": "泉大津高等学校",
    "ruby": "いずみおおつこうとうがっこう",
    "site": "https://www.osaka-c.ed.jp/izumiohtsu/",
    "address": "大阪府泉大津市北豊中町1-1-1",
    "label": "公立",
    "education": "共学校",
    "course": "普通科",
    "tel": "0725-32-2876",
    "lat": "34.498073",
    "lng": "135.42265",
    "near": "南海本線「泉大津」東2ｋｍ／JR阪和線「和泉府中」北1．7ｋｍ",
    "course1": "普通科",
    "course2": "",
    "course3": "",
    "course4": "",
    "course5": "",
    "course6": ""
  },
  {
    "id": "116",
    "name": "和泉高等学校",
    "ruby": "いずみこうとうがっこう",
    "site": "https://www.osaka-c.ed.jp/izumi/",
    "address": "大阪府岸和田市土生町1-2-1",
    "label": "公立",
    "education": "共学校",
    "course": "普通科、グローバル科",
    "tel": "072-423-1926",
    "lat": "34.453517",
    "lng": "135.383396",
    "near": "南海本線「岸和田」東1ｋｍ／JR阪和線「東岸和田」西800ｍ",
    "course1": "普通科",
    "course2": "グローバル科",
    "course3": "",
    "course4": "",
    "course5": "",
    "course6": ""
  },
  {
    "id": "117",
    "name": "和泉総合高等学校",
    "ruby": "いずみそうごうこうとうがっこう",
    "site": "https://www.osaka-c.ed.jp/izumi-t/",
    "address": "大阪府和泉市冨秋町1-14-4",
    "label": "公立",
    "education": "共学校",
    "course": "総合学科（エンパワメントスクール）",
    "tel": "0725-41-1250",
    "lat": "34.504034",
    "lng": "135.431263",
    "near": "JR阪和線「信太山」北西500ｍ／南海本線「北助松」南東1．9ｋｍ",
    "course1": "総合学科（エンパワメントスクール）",
    "course2": "",
    "course3": "",
    "course4": "",
    "course5": "",
    "course6": ""
  },
  {
    "id": "118",
    "name": "市岡高等学校",
    "ruby": "いちおかこうとうがっこう",
    "site": "https://www.osaka-c.ed.jp/ichioka/",
    "address": "大阪府大阪市港区市岡元町2-12-12",
    "label": "公立",
    "education": "共学校",
    "course": "普通科単位制",
    "tel": "06-6582-0330",
    "lat": "34.666742",
    "lng": "135.466251",
    "near": "JR環状線・大阪メトロ中央線「弁天町」東南東約400ｍ",
    "course1": "普通科単位制",
    "course2": "",
    "course3": "",
    "course4": "",
    "course5": "",
    "course6": ""
  },
  {
    "id": "119",
    "name": "いちりつ高等学校",
    "ruby": "いちりつこうとうがっこう",
    "site": "https://www3.osaka-c.ed.jp/ichiritsu",
    "address": "大阪府枚方市北中振2-8-1",
    "label": "公立",
    "education": "共学校",
    "course": "普通科、理数科、英語科",
    "tel": "072-833-0101",
    "lat": "34.795831",
    "lng": "135.633527",
    "near": "京阪「光善寺」東約350ｍ",
    "course1": "普通科",
    "course2": "理数科",
    "course3": "英語科",
    "course4": "",
    "course5": "",
    "course6": ""
  },
  {
    "id": "120",
    "name": "茨木工科高等学校",
    "ruby": "いばらきこうかこうとうがっこう",
    "site": "https://www.osaka-c.ed.jp/ibaraki-t/",
    "address": "大阪府茨木市春日5-6-41",
    "label": "公立",
    "education": "共学校",
    "course": "工業に関する学科【機械系・電気系・環境化学システム系・工学系】",
    "tel": "072-623-1331",
    "lat": "34.825189",
    "lng": "135.564304",
    "near": "JR「茨木」北1．1ｋｍ・「総持寺」西1．1ｋｍ／阪急「茨木市」北西約1．8ｋｍ／阪急バス「春日」下車東300ｍ「上穂積」下車北東500ｍ",
    "course1": "工業に関する学科【機械系・電気系・環境化学システム系・工学系】",
    "course2": "",
    "course3": "",
    "course4": "",
    "course5": "",
    "course6": ""
  },
  {
    "id": "121",
    "name": "茨木高等学校",
    "ruby": "いばらきこうとうがっこう",
    "site": "https://www.osaka-c.ed.jp/ibaraki/",
    "address": "大阪府茨木市新庄町12-1",
    "label": "公立",
    "education": "共学校",
    "course": "文理学科",
    "tel": "072-622-3423",
    "lat": "34.813776",
    "lng": "135.571126",
    "near": "阪急京都線「茨木市」南西650ｍ／JR「茨木」東750ｍ",
    "course1": "文理学科",
    "course2": "",
    "course3": "",
    "course4": "",
    "course5": "",
    "course6": ""
  },
  {
    "id": "122",
    "name": "茨木西高等学校",
    "ruby": "いばらきにしこうとうがっこう",
    "site": "https://www.osaka-c.ed.jp/ibarakinishi/",
    "address": "大阪府茨木市紫明園10-68",
    "label": "公立",
    "education": "共学校",
    "course": "普通科",
    "tel": "072-625-5711",
    "lat": "34.812846",
    "lng": "135.549935",
    "near": "大阪モノレール「宇野辺」徒歩900ｍ／JR「茨木」徒歩1800ｍ",
    "course1": "普通科",
    "course2": "",
    "course3": "",
    "course4": "",
    "course5": "",
    "course6": ""
  },
  {
    "id": "123",
    "name": "今宮工科高等学校",
    "ruby": "いまみやこうかこうとうがっこう",
    "site": "https://www.osaka-c.ed.jp/imamiya-t/",
    "address": "大阪府大阪市西成区出城1-1-6",
    "label": "公立",
    "education": "共学校",
    "course": "工業に関する学科【機械系・電気系・建築系・グラフィックデザイン系・工学系】",
    "tel": "06-6631-0055",
    "lat": "34.65026",
    "lng": "135.496286",
    "near": "JR環状線・南海本線「新今宮」西400ｍ／大阪メトロ御堂筋線・四つ橋線「大国町」南600ｍ／大阪メトロ堺筋線「動物園前」西600ｍ／大阪メトロ四ツ橋線「花園」北600ｍ",
    "course1": "工業に関する学科【機械系・電気系・建築系・グラフィックデザイン系・工学系】",
    "course2": "",
    "course3": "",
    "course4": "",
    "course5": "",
    "course6": ""
  },
  {
    "id": "124",
    "name": "今宮高等学校",
    "ruby": "いまみやこうとうがっこう",
    "site": "https://www.osaka-c.ed.jp/imamiya/",
    "address": "大阪府大阪市浪速区戎本町2-7-39",
    "label": "公立",
    "education": "共学校",
    "course": "総合学科",
    "tel": "06-6641-2612",
    "lat": "34.651921",
    "lng": "135.498311",
    "near": "大阪メトロ御堂筋線「大国町」南300ｍ／JR環状線・南海「新今宮」北西300ｍ",
    "course1": "総合学科",
    "course2": "",
    "course3": "",
    "course4": "",
    "course5": "",
    "course6": ""
  },
  {
    "id": "125",
    "name": "園芸高等学校",
    "ruby": "えんげいこうとうがっこう",
    "site": "https://osaka-engei.ed.jp/",
    "address": "大阪府池田市八王寺2-5-1",
    "label": "公立",
    "education": "共学校",
    "course": "農業に関する学科【フラワーファクトリ・環境緑化・バイオサイエンス】",
    "tel": "072-761-8830",
    "lat": "34.810184",
    "lng": "135.434627",
    "near": "阪急宝塚線「石橋」西1．2ｋｍ",
    "course1": "農業に関する学科【フラワーファクトリ・環境緑化・バイオサイエンス】",
    "course2": "",
    "course3": "",
    "course4": "",
    "course5": "",
    "course6": ""
  },
  {
    "id": "126",
    "name": "桜和高等学校",
    "ruby": "おうわこうとうがっこう",
    "site": "https://www3.osaka-c.ed.jp/owa",
    "address": "大阪府大阪市北区松ヶ枝町1-38",
    "label": "公立",
    "education": "共学校",
    "course": "教育文理学科",
    "tel": "06-6351-0036",
    "lat": "34.69898",
    "lng": "135.517421",
    "near": "大阪メトロ谷町線・堺筋線「南森町」北東800ｍ／JR東西線「大阪天満橋」北東600ｍ／JR環状線「桜ノ宮」南西900ｍ／大阪シティバス［東天満］北150ｍ",
    "course1": "教育文理学科",
    "course2": "",
    "course3": "",
    "course4": "",
    "course5": "",
    "course6": ""
  },
  {
    "id": "127",
    "name": "大阪公立大学工業高等専門学校",
    "ruby": "おおさかこうりつだいがくこうぎょうこうとうせんもんがっこう",
    "site": "https://www.ct.omu.ac.jp/",
    "address": "大阪府寝屋川市幸町26-12",
    "label": "公立",
    "education": "共学校",
    "course": "本科、専攻科",
    "tel": "072-821-6401",
    "lat": "34.770453",
    "lng": "135.629004",
    "near": "京阪本線「寝屋川市」徒歩北東約15分／京阪バス「寝屋川警察署前」下車徒歩約3分",
    "course1": "本科",
    "course2": "専攻科",
    "course3": "",
    "course4": "",
    "course5": "",
    "course6": ""
  },
  {
    "id": "128",
    "name": "大阪ビジネスフロンティア高等学校",
    "ruby": "おおさかびじねすふろんてぃあこうとうがっこう",
    "site": "https://www.osaka-c.ed.jp/obf-b",
    "address": "大阪府大阪市天王寺区烏ヶ辻2-9-26",
    "label": "公立",
    "education": "共学校",
    "course": "グローバルビジネス科",
    "tel": "06-6772-7961",
    "lat": "34.655489",
    "lng": "135.524535",
    "near": "JR環状線「桃谷」南西400ｍ／大阪メトロ谷町線「四天王寺前夕陽ヶ丘」東1000ｍ",
    "course1": "グローバルビジネス科",
    "course2": "",
    "course3": "",
    "course4": "",
    "course5": "",
    "course6": ""
  },
  {
    "id": "129",
    "name": "大阪わかば高等学校",
    "ruby": "おおさかわかばこうとうがっこう",
    "site": "https://www2.osaka-c.ed.jp/osakawakaba/",
    "address": "大阪府大阪市生野区巽東3-10-75",
    "label": "公立",
    "education": "共学校",
    "course": "多部制単位制１・２部【普通科】",
    "tel": "06-6757-9171",
    "lat": "34.651308",
    "lng": "135.559395",
    "near": "大阪メトロ千日前線「北巽」東約500ｍ／JRおおさか東線「JR長瀬」西1200ｍ",
    "course1": "多部制単位制１・２部【普通科】",
    "course2": "",
    "course3": "",
    "course4": "",
    "course5": "",
    "course6": ""
  },
  {
    "id": "130",
    "name": "大塚高等学校",
    "ruby": "おおつかこうとうがっこう",
    "site": "https://www.osaka-c.ed.jp/ohtsuka/",
    "address": "大阪府松原市西大塚2-1005",
    "label": "公立",
    "education": "共学校",
    "course": "普通科、体育科",
    "tel": "072-332-7515",
    "lat": "34.569214",
    "lng": "135.566112",
    "near": "近鉄南大阪線「河内松原」南東約1．4ｋｍ／近鉄バス・南海バス「近鉄河内松原駅前」下車、南東1．4Ｋｍ",
    "course1": "普通科",
    "course2": "体育科",
    "course3": "",
    "course4": "",
    "course5": "",
    "course6": ""
  },
  {
    "id": "131",
    "name": "大手前高等学校",
    "ruby": "おおてまえこうとうがっこう",
    "site": "https://www.osaka-c.ed.jp/otemae/",
    "address": "大阪府大阪市中央区大手前2-1-11",
    "label": "公立",
    "education": "共学校",
    "course": "文理学科",
    "tel": "06-6941-0051",
    "lat": "34.687256",
    "lng": "135.519837",
    "near": "大阪メトロ谷町線「天満橋」3番出口東南400ｍ／京阪「天満橋」3番出口東南500ｍ／大阪市バス「大手前」",
    "course1": "文理学科",
    "course2": "",
    "course3": "",
    "course4": "",
    "course5": "",
    "course6": ""
  },
  {
    "id": "132",
    "name": "鳳高等学校",
    "ruby": "おおとりこうとうがっこう",
    "site": "https://www.osaka-c.ed.jp/ohtori/",
    "address": "大阪府堺市西区原田150",
    "label": "公立",
    "education": "共学校",
    "course": "普通科単位制",
    "tel": "072-271-5151",
    "lat": "34.517657",
    "lng": "135.458268",
    "near": "JR阪和線「富木」南東1．2ｋｍ・「鳳」南東1．7ｋｍ／南海本線「高石」南東2．7ｋｍ／南海バス［草部］西500ｍ",
    "course1": "普通科単位制",
    "course2": "",
    "course3": "",
    "course4": "",
    "course5": "",
    "course6": ""
  },
  {
    "id": "133",
    "name": "貝塚高等学校",
    "ruby": "かいづかこうとうがっこう",
    "site": "https://www.osaka-c.ed.jp/kaizuka/",
    "address": "大阪府貝塚市畠中1-1-1",
    "label": "公立",
    "education": "共学校",
    "course": "総合学科",
    "tel": "072-423-1401",
    "lat": "34.440358",
    "lng": "135.358197",
    "near": "南海本線「貝塚」東800ｍ",
    "course1": "総合学科",
    "course2": "",
    "course3": "",
    "course4": "",
    "course5": "",
    "course6": ""
  },
  {
    "id": "134",
    "name": "貝塚南高等学校",
    "ruby": "かいづかみなみこうとうがっこう",
    "site": "https://www.osaka-c.ed.jp/kaizukaminami/",
    "address": "大阪府貝塚市橋本620",
    "label": "公立",
    "education": "共学校",
    "course": "普通科",
    "tel": "072-432-2004",
    "lat": "34.422239",
    "lng": "135.367265",
    "near": "JR阪和線「和泉橋本」南東1，2Ｋｍ／水間鉄道水間線「清児」南西700ｍ",
    "course1": "普通科",
    "course2": "",
    "course3": "",
    "course4": "",
    "course5": "",
    "course6": ""
  },
  {
    "id": "135",
    "name": "懐風館高等学校",
    "ruby": "かいふうかんこうとうがっこう",
    "site": "https://www.osaka-c.ed.jp/kaifukan/",
    "address": "大阪府羽曳野市大黒776",
    "label": "公立",
    "education": "共学校",
    "course": "普通科",
    "tel": "072-957-0001",
    "lat": "34.539342",
    "lng": "135.622517",
    "near": "近鉄南大阪線「駒ヶ谷」南1，1Ｋｍ・「古市」南東2，6Ｋｍ／近鉄長野線「喜志」北東2，9Ｋｍ／近鉄大阪線「河内国分」南南西3，8Ｋｍ",
    "course1": "普通科",
    "course2": "",
    "course3": "",
    "course4": "",
    "course5": "",
    "course6": ""
  },
  {
    "id": "136",
    "name": "春日丘高等学校",
    "ruby": "かすががおかこうとうがっこう",
    "site": "https://www.osaka-c.ed.jp/kasugaoka/",
    "address": "大阪府茨木市春日2-1-2",
    "label": "公立",
    "education": "共学校",
    "course": "普通科",
    "tel": "072-623-2061",
    "lat": "34.818483",
    "lng": "135.56093",
    "near": "JR「茨木」北西約300ｍ／阪急京都線「茨木市」西約1400ｍ／大阪モノレール「宇野辺」北約1300ｍ",
    "course1": "普通科",
    "course2": "",
    "course3": "",
    "course4": "",
    "course5": "",
    "course6": ""
  },
  {
    "id": "137",
    "name": "交野高等学校",
    "ruby": "かたのこうとうがっこう",
    "site": "https://www2.osaka-c.ed.jp/katano/",
    "address": "大阪府交野市寺南野10-1",
    "label": "公立",
    "education": "共学校",
    "course": "普通科",
    "tel": "072-891-9251",
    "lat": "34.781794",
    "lng": "135.688783",
    "near": "京阪交野線「泉河内森」約1．2ｋｍ／JR学研都市線「河内磐船」約1ｋｍ",
    "course1": "普通科",
    "course2": "",
    "course3": "",
    "course4": "",
    "course5": "",
    "course6": ""
  },
  {
    "id": "138",
    "name": "門真なみはや高等学校",
    "ruby": "かどまなみはやこうとうがっこう",
    "site": "https://www.osaka-c.ed.jp/kadomanamihaya/",
    "address": "大阪府門真市島頭4-9-1",
    "label": "公立",
    "education": "共学校",
    "course": "総合学科",
    "tel": "072-881-2331",
    "lat": "34.727805",
    "lng": "135.60907",
    "near": "京阪「大和田」から京阪バス「門真団地」北東200ｍ／JR「住道」から近鉄バス「下馬伏」西800ｍ／大阪メトロ「門真南」から京阪バス「門真団地」北東200ｍ",
    "course1": "総合学科",
    "course2": "",
    "course3": "",
    "course4": "",
    "course5": "",
    "course6": ""
  },
  {
    "id": "139",
    "name": "門真西高等学校",
    "ruby": "かどまにしこうとうがっこう",
    "site": "https://www.osaka-c.ed.jp/kadomanishi/",
    "address": "大阪府門真市柳田町29-1",
    "label": "公立",
    "education": "共学校",
    "course": "普通科",
    "tel": "06-6909-0318",
    "lat": "34.728839",
    "lng": "135.591044",
    "near": "京阪「古川橋」南約1．5ｋｍ／京阪バス「試験場前」下車",
    "course1": "普通科",
    "course2": "",
    "course3": "",
    "course4": "",
    "course5": "",
    "course6": ""
  },
  {
    "id": "140",
    "name": "金岡高等学校",
    "ruby": "かなおかこうとうがっこう",
    "site": "https://www.osaka-c.ed.jp/kanaoka/",
    "address": "大阪府堺市北区金岡町2651",
    "label": "公立",
    "education": "共学校",
    "course": "普通科",
    "tel": "072-257-1431",
    "lat": "34.553306",
    "lng": "135.526322",
    "near": "南海高野線「初芝」北1，5Ｋｍ・「白鷺」北東1，6ｋｍ／御堂筋線「なかもず」2Ｋｍ",
    "course1": "普通科",
    "course2": "",
    "course3": "",
    "course4": "",
    "course5": "",
    "course6": ""
  },
  {
    "id": "141",
    "name": "河南高等学校",
    "ruby": "かなんこうとうがっこう",
    "site": "https://www.osaka-c.ed.jp/kanan/",
    "address": "大阪府富田林市錦ヶ丘町1-15",
    "label": "公立",
    "education": "共学校",
    "course": "普通科",
    "tel": "0721-23-2081",
    "lat": "34.499788",
    "lng": "135.59109",
    "near": "近鉄長野線「富田林西口」西400ｍ／南海高野線「金剛」駅より東へ自転車で15～20分",
    "course1": "普通科",
    "course2": "",
    "course3": "",
    "course4": "",
    "course5": "",
    "course6": ""
  },
  {
    "id": "142",
    "name": "岸和田高等学校",
    "ruby": "きしわだこうとうがっこう",
    "site": "https://www.osaka-c.ed.jp/kishiwada/",
    "address": "大阪府岸和田市岸城町10-1",
    "label": "公立",
    "education": "共学校",
    "course": "文理学科",
    "tel": "072-422-3691",
    "lat": "34.458289",
    "lng": "135.372052",
    "near": "南海本線「蛸地蔵」北東300ｍ・「岸和田」南西700ｍ",
    "course1": "文理学科",
    "course2": "",
    "course3": "",
    "course4": "",
    "course5": "",
    "course6": ""
  },
  {
    "id": "143",
    "name": "岸和田市立産業高等学校",
    "ruby": "きしわだしりつさんぎょうこうとうがっこう",
    "site": "http://www.kishisan-h.ed.jp/",
    "address": "大阪府岸和田市別所町3-33-1",
    "label": "公立",
    "education": "共学校",
    "course": "デザインシステム科 、商業科、情報科",
    "tel": "072-422-4861",
    "lat": "34.460496",
    "lng": "135.389444",
    "near": "南海本線「岸和田」東1200ｍ／JR阪和線「下松」西800ｍ",
    "course1": "デザインシステム科",
    "course2": "商業科",
    "course3": "情報科",
    "course4": "",
    "course5": "",
    "course6": ""
  },
  {
    "id": "144",
    "name": "北かわち皐が丘高等学校",
    "ruby": "きたかわちさつきがおかこうとうがっこう",
    "site": "https://www2.osaka-c.ed.jp/kitakawachisatsukigaoka/",
    "address": "大阪府寝屋川市寝屋北町1-1",
    "label": "公立",
    "education": "共学校",
    "course": "普通科",
    "tel": "072-822-2241",
    "lat": "34.77466",
    "lng": "135.655661",
    "near": "JR学研都市線「星田」北西約1300ｍ／京阪「寝屋川市」から京阪バス「寝屋川団地口」下車約400ｍ",
    "course1": "普通科",
    "course2": "",
    "course3": "",
    "course4": "",
    "course5": "",
    "course6": ""
  },
  {
    "id": "145",
    "name": "北千里高等学校",
    "ruby": "きたせんりこうとうがっこう",
    "site": "https://www.osaka-c.ed.jp/kitasenri/",
    "address": "大阪府吹田市藤白台5-6-1",
    "label": "公立",
    "education": "共学校",
    "course": "普通科",
    "tel": "06-6872-0535",
    "lat": "34.828921",
    "lng": "135.506983",
    "near": "阪急千里線「北千里」北約1ｋｍ／「北千里」から阪急バス、北大阪急行・大阪モノレール「千里中央」より阪急バス「藤白台五丁目」下車南へ200ｍ",
    "course1": "普通科",
    "course2": "",
    "course3": "",
    "course4": "",
    "course5": "",
    "course6": ""
  },
  {
    "id": "146",
    "name": "北野高等学校",
    "ruby": "きたのこうとうがっこう",
    "site": "https://www.osaka-c.ed.jp/kitano/",
    "address": "大阪府大阪市淀川区新北野2-5-13",
    "label": "公立",
    "education": "共学校",
    "course": "文理学科",
    "tel": "06-6303-5661",
    "lat": "34.716289",
    "lng": "135.477052",
    "near": "阪急宝塚線「十三」南西700ｍ／JR「塚本」東1100ｍ",
    "course1": "文理学科",
    "course2": "",
    "course3": "",
    "course4": "",
    "course5": "",
    "course6": ""
  },
  {
    "id": "147",
    "name": "教育センター附属高等学校",
    "ruby": "きょういくせんたーふぞくこうとうがっこう",
    "site": "https://www.osaka-c.ed.jp/partner/",
    "address": "大阪府大阪市住吉区苅田4-1-72",
    "label": "公立",
    "education": "共学校",
    "course": "普通科単位制",
    "tel": "06-6692-0006",
    "lat": "34.602054",
    "lng": "135.521146",
    "near": "大阪メトロ御堂筋線「あびこ」東北東1．2ｋｍ／JR阪和線「我孫子町」東1．6ｋｍ／近鉄南大阪線「矢田」西南西1．5ｋｍ",
    "course1": "普通科単位制",
    "course2": "",
    "course3": "",
    "course4": "",
    "course5": "",
    "course6": ""
  },
  {
    "id": "148",
    "name": "柴島高等学校",
    "ruby": "くにじまこうとうがっこう",
    "site": "https://www.osaka-c.ed.jp/kunijima/",
    "address": "大阪府大阪市東淀川区柴島1-7-106",
    "label": "公立",
    "education": "共学校",
    "course": "総合学科",
    "tel": "06-6323-8351",
    "lat": "34.729114",
    "lng": "135.510243",
    "near": "阪急京都線「崇禅寺」下車すぐ／阪急千里線「柴島」北西200ｍ／大阪市バス「長柄橋北詰」下車北400ｍ",
    "course1": "総合学科",
    "course2": "",
    "course3": "",
    "course4": "",
    "course5": "",
    "course6": ""
  },
  {
    "id": "149",
    "name": "久米田高等学校",
    "ruby": "くめだこうとうがっこう",
    "site": "https://www.osaka-c.ed.jp/kumeda/",
    "address": "大阪府岸和田市額原町1100",
    "label": "公立",
    "education": "共学校",
    "course": "普通科",
    "tel": "072-443-6651",
    "lat": "34.461831",
    "lng": "135.398298",
    "near": "南海本線「岸和田」「和泉大宮」からバス「市民病院前」下車／JR阪和線「下松」西700ｍ",
    "course1": "普通科",
    "course2": "",
    "course3": "",
    "course4": "",
    "course5": "",
    "course6": ""
  },
  {
    "id": "150",
    "name": "工芸高等学校",
    "ruby": "こうげいこうとうがっこう",
    "site": "https://www3.osaka-c.ed.jp/kogei-t",
    "address": "大阪府大阪市阿倍野区文の里1-7-2",
    "label": "公立",
    "education": "共学校",
    "course": "建築デザイン科、インテリアデザイン科、ビジュアルデザイン科、映像デザイン科、プロダクトデザイン科、美術科",
    "tel": "06-6623-0485",
    "lat": "34.637883",
    "lng": "135.518871",
    "near": "大阪メトロ谷町線「文の里」北200ｍ／御堂筋線「昭和町」北500ｍ／JR阪和線「美章園」西500ｍ",
    "course1": "建築デザイン科",
    "course2": "インテリアデザイン科",
    "course3": "ビジュアルデザイン科",
    "course4": "映像デザイン科",
    "course5": "プロダクトデザイン科",
    "course6": "美術科"
  },
  {
    "id": "151",
    "name": "高津高等学校",
    "ruby": "こうづこうとうがっこう",
    "site": "https://www.osaka-c.ed.jp/kozu/",
    "address": "大阪府大阪市天王寺区餌差町10-47",
    "label": "公立",
    "education": "共学校",
    "course": "文理学科",
    "tel": "06-6761-0336",
    "lat": "34.669588",
    "lng": "135.525567",
    "near": "近鉄大阪［上本町］北東800ｍ／JR環状線・大阪メトロ千日前線・近鉄「鶴橋」北西800～900ｍ／大阪メトロ谷町線「谷町九丁目」東北東約900ｍ／JR環状線「玉造」南西約1ｋｍ",
    "course1": "文理学科",
    "course2": "",
    "course3": "",
    "course4": "",
    "course5": "",
    "course6": ""
  },
  {
    "id": "152",
    "name": "港南造形高等学校",
    "ruby": "こうなんぞうけいこうとうがっこう",
    "site": "https://www.osaka-c.ed.jp/konanzokei/",
    "address": "大阪府大阪市住之江区南港東2-5-72",
    "label": "公立",
    "education": "共学校",
    "course": "総合造形科",
    "tel": "06-6613-1000",
    "lat": "34.613469",
    "lng": "135.443209",
    "near": "ニュートラム「南港口」西400ｍ・「港南東」東400ｍ",
    "course1": "総合造形科",
    "course2": "",
    "course3": "",
    "course4": "",
    "course5": "",
    "course6": ""
  },
  {
    "id": "153",
    "name": "香里丘高等学校",
    "ruby": "こうりがおかこうとうがっこう",
    "site": "https://www.osaka-c.ed.jp/korigaoka/",
    "address": "大阪府枚方市東中振2-18-1",
    "label": "公立",
    "education": "共学校",
    "course": "普通科",
    "tel": "072-832-3421",
    "lat": "34.795066",
    "lng": "135.642418",
    "near": "京阪「光善寺」東1．2ｋｍ／「香里園」からバス10分",
    "course1": "普通科",
    "course2": "",
    "course3": "",
    "course4": "",
    "course5": "",
    "course6": ""
  },
  {
    "id": "154",
    "name": "金剛高等学校",
    "ruby": "こんごうこうとうがっこう",
    "site": "https://www.osaka-c.ed.jp/kongo/",
    "address": "大阪府富田林市藤沢台2-1-1",
    "label": "公立",
    "education": "共学校",
    "course": "普通科",
    "tel": "0721-28-3811",
    "lat": "34.504228",
    "lng": "135.573892",
    "near": "南海高野線「金剛」から南海バス「藤沢台6丁目」もしくは「金剛高校前」下車徒歩5分／近鉄長野線「富田林」から近鉄バス「藤沢台6丁目」下車徒歩5分",
    "course1": "普通科",
    "course2": "",
    "course3": "",
    "course4": "",
    "course5": "",
    "course6": ""
  },
  {
    "id": "155",
    "name": "堺工科高等学校",
    "ruby": "さかいこうかこうとうがっこう",
    "site": "https://www.osaka-c.ed.jp/sakai-t/",
    "address": "大阪府堺市堺区大仙中町12-1",
    "label": "公立",
    "education": "共学校",
    "course": "工業に関する学科【機械系・電気系・環境化学システム系】",
    "tel": "072-241-1401",
    "lat": "34.562269",
    "lng": "135.476997",
    "near": "JR阪和線「百舌鳥」西1．2ｋｍ／南海高野線「堺東」南1．6ｋｍ・南海バス「工業高校前」下車",
    "course1": "工業に関する学科【機械系・電気系・環境化学システム系】",
    "course2": "",
    "course3": "",
    "course4": "",
    "course5": "",
    "course6": ""
  },
  {
    "id": "156",
    "name": "堺上高等学校",
    "ruby": "さかいじょうこうとうがっこう",
    "site": "https://www.osaka-c.ed.jp/sakaikami/",
    "address": "大阪府堺市西区上61",
    "label": "公立",
    "education": "共学校",
    "course": "普通科",
    "tel": "072-271-0808",
    "lat": "34.523944",
    "lng": "135.467962",
    "near": "JR阪和線「鳳」南東約1，6Ｋｍ・「津久野」から南海バス「毛穴南」下車西200ｍ／泉北高速「深井」または「泉ヶ丘」から南海バス「毛穴南」下車西200ｍ",
    "course1": "普通科",
    "course2": "",
    "course3": "",
    "course4": "",
    "course5": "",
    "course6": ""
  },
  {
    "id": "157",
    "name": "堺市立堺高等学校",
    "ruby": "さかいしりつさかいこうとうがっこう",
    "site": "http://www.sakai.ed.jp/sakai-hs/",
    "address": "大阪府堺市堺区向陵東町1-10-1",
    "label": "公立",
    "education": "共学校",
    "course": "工業に関する学科、マネジメント創造科、サイエンス創造科",
    "tel": "072-240-0840",
    "lat": "34.563924",
    "lng": "135.496654",
    "near": "JR阪和線・南海高野線「三国ヶ丘」東約500ｍ／南海高野線「百舌鳥八幡」北約500ｍ",
    "course1": "工業に関する学科",
    "course2": "マネジメント創造科",
    "course3": "サイエンス創造科",
    "course4": "",
    "course5": "",
    "course6": ""
  },
  {
    "id": "158",
    "name": "堺西高等学校",
    "ruby": "さかいにしこうとうがっこう",
    "site": "https://www.osaka-c.ed.jp/sakainishi/",
    "address": "大阪府堺市南区桃山台4-16",
    "label": "公立",
    "education": "共学校",
    "course": "普通科",
    "tel": "072-298-4410",
    "lat": "34.495548",
    "lng": "135.484309",
    "near": "泉北高速鉄道「栂・美木多」徒歩15分・南海バス「堺西高校前」下車／JR阪和線「津久野」から南海バス「堺西高校前」下車",
    "course1": "普通科",
    "course2": "",
    "course3": "",
    "course4": "",
    "course5": "",
    "course6": ""
  },
  {
    "id": "159",
    "name": "堺東高等学校",
    "ruby": "さかいひがしこうとうがっこう",
    "site": "https://www.osaka-c.ed.jp/sakaihigashi/",
    "address": "大阪府堺市南区晴美台1-1-2",
    "label": "公立",
    "education": "共学校",
    "course": "総合学科",
    "tel": "072-291-5510",
    "lat": "34.49895",
    "lng": "135.53416",
    "near": "泉北高速鉄道「泉ケ丘」・南海高野線「金剛」から南海バス「堺東高校前」下車徒歩4分",
    "course1": "総合学科",
    "course2": "",
    "course3": "",
    "course4": "",
    "course5": "",
    "course6": ""
  },
  {
    "id": "160",
    "name": "咲くやこの花高等学校",
    "ruby": "さくやこのはなこうとうがっこう",
    "site": "https://www3.osaka-c.ed.jp/sakuyakonohana",
    "address": "大阪府大阪市此花区西九条6-1-44",
    "label": "公立",
    "education": "共学校",
    "course": "総合学科、食物文化科、演劇科",
    "tel": "06-6464-8881",
    "lat": "34.680403",
    "lng": "135.462673",
    "near": "JR環状線・阪神なんば線「西九条」南西約500ｍ",
    "course1": "総合学科",
    "course2": "食物文化科",
    "course3": "演劇科",
    "course4": "",
    "course5": "",
    "course6": ""
  },
  {
    "id": "161",
    "name": "桜塚高等学校",
    "ruby": "さくらづかこうとうがっこう",
    "site": "https://www.osaka-c.ed.jp/sakurazuka/",
    "address": "大阪府豊中市中桜塚4-1-1",
    "label": "公立",
    "education": "共学校",
    "course": "普通科",
    "tel": "06-6853-2244",
    "lat": "34.782382",
    "lng": "135.472353",
    "near": "阪急宝塚線「岡町」東800ｍ",
    "course1": "普通科",
    "course2": "",
    "course3": "",
    "course4": "",
    "course5": "",
    "course6": ""
  },
  {
    "id": "162",
    "name": "桜宮高等学校",
    "ruby": "さくらのみやこうとうがっこう",
    "site": "https://www3.osaka-c.ed.jp/sakuranomiya",
    "address": "大阪府大阪市都島区毛馬町5-22-28",
    "label": "公立",
    "education": "共学校",
    "course": "普通科、人間スポーツ科学科",
    "tel": "06-6921-5231",
    "lat": "34.727169",
    "lng": "135.524839",
    "near": "大阪メトロ御堂筋線「中津」からバス「大東町」北500ｍ／大阪メトロ「天満橋」からバス「赤川三丁目」北西800ｍ／＊JR「京橋」からバス「桜宮高校」下車すぐ",
    "course1": "普通科",
    "course2": "人間スポーツ科学科",
    "course3": "",
    "course4": "",
    "course5": "",
    "course6": ""
  },
  {
    "id": "163",
    "name": "佐野工科高等学校",
    "ruby": "さのこうかこうとうがっこう",
    "site": "https://www.osaka-c.ed.jp/sano-t/",
    "address": "大阪府泉佐野市高松東1-3-50",
    "label": "公立",
    "education": "共学校",
    "course": "工業に関する学科【機械系・電気系・産業創造系】",
    "tel": "072-462-2772",
    "lat": "34.406355",
    "lng": "135.316897",
    "near": "南海本線「泉佐野」南東500ｍ",
    "course1": "工業に関する学科【機械系・電気系・産業創造系】",
    "course2": "",
    "course3": "",
    "course4": "",
    "course5": "",
    "course6": ""
  },
  {
    "id": "164",
    "name": "佐野高等学校",
    "ruby": "さのこうとうがっこう",
    "site": "https://www.osaka-c.ed.jp/sano/",
    "address": "大阪府泉佐野市市場東2-14-1",
    "label": "公立",
    "education": "共学校",
    "course": "普通科、国際教養科",
    "tel": "072-462-3825",
    "lat": "34.406455",
    "lng": "135.323261",
    "near": "南海本線「泉佐野」東850ｍ／JR阪和線「日根野」よりバズ「市場」下車",
    "course1": "普通科",
    "course2": "国際教養科",
    "course3": "",
    "course4": "",
    "course5": "",
    "course6": ""
  },
  {
    "id": "165",
    "name": "狭山高等学校",
    "ruby": "さやまこうとうがっこう",
    "site": "https://www.osaka-c.ed.jp/sayama/",
    "address": "大阪府大阪狭山市半田4-1510",
    "label": "公立",
    "education": "共学校",
    "course": "普通科",
    "tel": "072-366-8400",
    "lat": "34.49564",
    "lng": "135.550184",
    "near": "南海高野線「金剛」西1，1Ｋｍ",
    "course1": "普通科",
    "course2": "",
    "course3": "",
    "course4": "",
    "course5": "",
    "course6": ""
  },
  {
    "id": "166",
    "name": "四條畷高等学校",
    "ruby": "しじょうなわてこうとうがっこう",
    "site": "https://www.osaka-c.ed.jp/shijonawate/",
    "address": "大阪府四條畷市雁屋北町1-1",
    "label": "公立",
    "education": "共学校",
    "course": "文理学科",
    "tel": "072-877-0004",
    "lat": "34.735793",
    "lng": "135.63547",
    "near": "JR学研都市線「四条畷」北西800ｍ／「寝屋川市」から京阪バス「四条畷駅」下車／近鉄奈良線「瓢箪山」から近鉄バス「四条畷駅」下車",
    "course1": "文理学科",
    "course2": "",
    "course3": "",
    "course4": "",
    "course5": "",
    "course6": ""
  },
  {
    "id": "167",
    "name": "信太高等学校",
    "ruby": "しのだこうとうがっこう",
    "site": "https://www.osaka-c.ed.jp/shinoda/",
    "address": "大阪府和泉市葛の葉町3-6-8",
    "label": "公立",
    "education": "共学校",
    "course": "普通科",
    "tel": "0725-23-3631",
    "lat": "34.512326",
    "lng": "135.433754",
    "near": "南海本線「北助松」東約1．1ｋｍ／JR阪和線「北信太」西約1．3ｋｍ",
    "course1": "普通科",
    "course2": "",
    "course3": "",
    "course4": "",
    "course5": "",
    "course6": ""
  },
  {
    "id": "168",
    "name": "渋谷高等学校",
    "ruby": "しぶやこうとうがっこう",
    "site": "https://www.osaka-c.ed.jp/shibutani/",
    "address": "大阪府池田市畑4-1-1",
    "label": "公立",
    "education": "共学校",
    "course": "普通科",
    "tel": "072-751-2895",
    "lat": "34.82722",
    "lng": "135.448832",
    "near": "阪急宝塚線「石橋阪大前」北2ｋｍ／阪急石橋阪大前・池田から阪急バス「石澄（渋谷）高校前」下車",
    "course1": "普通科",
    "course2": "",
    "course3": "",
    "course4": "",
    "course5": "",
    "course6": ""
  },
  {
    "id": "169",
    "name": "清水谷高等学校",
    "ruby": "しみずたにこうとうがっこう",
    "site": "https://www.osaka-c.ed.jp/shimizudani/",
    "address": "大阪府大阪市天王寺区清水谷町2-44",
    "label": "公立",
    "education": "共学校",
    "course": "普通科",
    "tel": "06-6762-0185",
    "lat": "34.674614",
    "lng": "135.524353",
    "near": "JR環状線「玉造」西800ｍ／大阪メトロ長堀鶴見緑地線「玉造」西500ｍ／大阪メトロ谷町線「谷町六丁目」東500ｍ，／近鉄「上本町」北1200ｍ",
    "course1": "普通科",
    "course2": "",
    "course3": "",
    "course4": "",
    "course5": "",
    "course6": ""
  },
  {
    "id": "170",
    "name": "城東工科高等学校（2025年度募集停止）",
    "ruby": "じょうとうこうかこうとうがっこう",
    "site": "https://joto-tech.ed.jp/",
    "address": "大阪府東大阪市西鴻池町2-5-33",
    "label": "公立",
    "education": "共学校",
    "course": "工業に関する学科【機械系・電気系・メカトロニクス系】",
    "tel": "06-6745-0051",
    "lat": "34.698839",
    "lng": "135.593553",
    "near": "JR学研都市線「鴻池新田」200ｍ",
    "course1": "工業に関する学科【機械系・電気系・メカトロニクス系】",
    "course2": "",
    "course3": "",
    "course4": "",
    "course5": "",
    "course6": ""
  },
  {
    "id": "171",
    "name": "吹田高等学校",
    "ruby": "すいたこうとうがっこう",
    "site": "https://www.osaka-c.ed.jp/suita/",
    "address": "大阪府吹田市原町4-24-14",
    "label": "公立",
    "education": "共学校",
    "course": "普通科",
    "tel": "06-6387-6651",
    "lat": "34.778276",
    "lng": "135.527814",
    "near": "JR「吹田」・阪急千里線「吹田」から阪急バス「吹田高校」下車／JR「岸辺」北西1500ｍ",
    "course1": "普通科",
    "course2": "",
    "course3": "",
    "course4": "",
    "course5": "",
    "course6": ""
  },
  {
    "id": "172",
    "name": "吹田東高等学校",
    "ruby": "すいたひがしこうとうがっこう",
    "site": "https://www.osaka-c.ed.jp/suitahigashi/",
    "address": "大阪府吹田市青葉丘南16-1",
    "label": "公立",
    "education": "共学校",
    "course": "普通科",
    "tel": "06-6877-6715",
    "lat": "34.804472",
    "lng": "135.54635",
    "near": "大阪モノレール「宇野辺」西南西1200ｍ／JR「千里丘」北西1700ｍ／阪急千里線「山田」・北大阪急行「千里中央」から阪急バス「吹田東高校前」下車",
    "course1": "普通科",
    "course2": "",
    "course3": "",
    "course4": "",
    "course5": "",
    "course6": ""
  },
  {
    "id": "173",
    "name": "水都国際高等学校",
    "ruby": "すいとこくさいこうとうがっこう",
    "site": "https://osaka-city-ib.jp/",
    "address": "大阪府大阪市住之江区南港中2-7-18",
    "label": "公立",
    "education": "共学校",
    "course": "グローバル探究科",
    "tel": "06-7662-9600",
    "lat": "34.6284",
    "lng": "135.427928",
    "near": "ニュートラム「ポートタウン西」南800ｍ・「ポートタウン東」南800ｍ",
    "course1": "グローバル探究科",
    "course2": "",
    "course3": "",
    "course4": "",
    "course5": "",
    "course6": ""
  },
  {
    "id": "174",
    "name": "住吉高等学校",
    "ruby": "すみよしこうとうがっこう",
    "site": "https://www.osaka-c.ed.jp/sumiyoshi/",
    "address": "大阪府大阪市阿倍野区北畠2-4-1",
    "label": "公立",
    "education": "共学校",
    "course": "国際文化科、総合科学科",
    "tel": "06-6651-0525",
    "lat": "34.627559",
    "lng": "135.503397",
    "near": "阪堺上町線「北畠」西200ｍ",
    "course1": "国際文化科",
    "course2": "総合科学科",
    "course3": "",
    "course4": "",
    "course5": "",
    "course6": ""
  },
  {
    "id": "175",
    "name": "住吉商業高等学校",
    "ruby": "すみよししょうぎょうこうとうがっこう",
    "site": "https://www3.osaka-c.ed.jp/sumiyoshi-b",
    "address": "大阪府大阪市住之江区御崎7-12-55",
    "label": "公立",
    "education": "共学校",
    "course": "商業科",
    "tel": "06-6681-0577",
    "lat": "34.603819",
    "lng": "135.479398",
    "near": "南海本線「住之江」南西700ｍ／大阪メトロ四つ橋線「住之江公園」南東1ｋｍ",
    "course1": "商業科",
    "course2": "",
    "course3": "",
    "course4": "",
    "course5": "",
    "course6": ""
  },
  {
    "id": "176",
    "name": "成城高等学校",
    "ruby": "せいじょうこうとうがこう",
    "site": "https://www.osaka-c.ed.jp/seijo-t/",
    "address": "大阪府大阪市城東区諏訪3-11-41",
    "label": "公立",
    "education": "共学校",
    "course": "総合学科（エンパワメントスクール）",
    "tel": "06-6962-2801",
    "lat": "34.682158",
    "lng": "135.562147",
    "near": "大阪メトロ中央線「深江橋」北東約500ｍ／JR学研都市線・おおさか東線「放出」南約1200ｍ／JRおおさか東線「高井田中央」西約1300ｍ",
    "course1": "総合学科（エンパワメントスクール）",
    "course2": "",
    "course3": "",
    "course4": "",
    "course5": "",
    "course6": ""
  },
  {
    "id": "177",
    "name": "成美高等学校",
    "ruby": "せいびこうとうがっこう",
    "site": "https://www.osaka-c.ed.jp/seibi/",
    "address": "大阪府堺市南区城山台4-1-1",
    "label": "公立",
    "education": "共学校",
    "course": "総合学科",
    "tel": "072-299-9000",
    "lat": "34.463295",
    "lng": "135.487206",
    "near": "泉北高速鉄道「光明池」から南海バス「城山台4丁」下車",
    "course1": "総合学科",
    "course2": "",
    "course3": "",
    "course4": "",
    "course5": "",
    "course6": ""
  },
  {
    "id": "178",
    "name": "摂津高等学校",
    "ruby": "せっつこうとうがっこう",
    "site": "https://www.osaka-c.ed.jp/settsu/",
    "address": "大阪府摂津市学園町1-5-1",
    "label": "公立",
    "education": "共学校",
    "course": "普通科、体育科",
    "tel": "072-635-1441",
    "lat": "34.787225",
    "lng": "135.559568",
    "near": "阪急京都線「摂津市」東500ｍ／JR「千里丘」・大阪モノレール「沢良宜」・「摂津」1200ｍ",
    "course1": "普通科",
    "course2": "体育科",
    "course3": "",
    "course4": "",
    "course5": "",
    "course6": ""
  },
  {
    "id": "179",
    "name": "泉北高等学校",
    "ruby": "せんほくこうとうがっこう",
    "site": "https://www.osaka-c.ed.jp/semboku/",
    "address": "大阪府堺市南区若松台3-2-2",
    "label": "公立",
    "education": "共学校",
    "course": "国際文化科、総合科学科",
    "tel": "072-297-1065",
    "lat": "34.490299",
    "lng": "135.50122",
    "near": "泉北高速鉄道「泉ケ丘」南西1．2ｋｍ・「栂・美木多」北1．2ｋｍ",
    "course1": "国際文化科",
    "course2": "総合科学科",
    "course3": "",
    "course4": "",
    "course5": "",
    "course6": ""
  },
  {
    "id": "180",
    "name": "泉陽高等学校",
    "ruby": "せんようこうとうがっこう",
    "site": "https://www.osaka-c.ed.jp/senyo/",
    "address": "大阪府堺市堺区車之町東3-2-1",
    "label": "公立",
    "education": "共学校",
    "course": "普通科",
    "tel": "072-233-0588",
    "lat": "34.580176",
    "lng": "135.479794",
    "near": "阪堺線「花田口」東約300ｍ／南海高野線「堺東」北西約800ｍ／南海本線「堺」東約1Ｋｍ",
    "course1": "普通科",
    "course2": "",
    "course3": "",
    "course4": "",
    "course5": "",
    "course6": ""
  },
  {
    "id": "181",
    "name": "千里高等学校",
    "ruby": "せんりこうとうがっこう",
    "site": "https://www.osaka-c.ed.jp/senri/",
    "address": "大阪府吹田市高野台2-17-1",
    "label": "公立",
    "education": "共学校",
    "course": "国際文化科、総合科学科",
    "tel": "06-6871-0050",
    "lat": "34.799153",
    "lng": "135.514681",
    "near": "阪急千里線「南千里」北東1ｋｍ・「山田」南800ｍ／大阪モノレール「山田」南900ｍ",
    "course1": "国際文化科",
    "course2": "総合科学科",
    "course3": "",
    "course4": "",
    "course5": "",
    "course6": ""
  },
  {
    "id": "182",
    "name": "千里青雲高等学校",
    "ruby": "せんりせいうんこうとうがっこう",
    "site": "https://www.osaka-c.ed.jp/senriseiun/",
    "address": "大阪府豊中市新千里南町1-5-1",
    "label": "公立",
    "education": "共学校",
    "course": "総合学科",
    "tel": "06-6831-3045",
    "lat": "34.804208",
    "lng": "135.487266",
    "near": "北大阪急行「千里中央」南西1．5ｋｍ／阪急バス「豊中九中前」",
    "course1": "総合学科",
    "course2": "",
    "course3": "",
    "course4": "",
    "course5": "",
    "course6": ""
  },
  {
    "id": "183",
    "name": "大冠高等学校",
    "ruby": "だいかんこうとうがっこう",
    "site": "https://www.osaka-c.ed.jp/ohkanmuri/",
    "address": "大阪府高槻市大塚町4-50-1",
    "label": "公立",
    "education": "共学校",
    "course": "普通科",
    "tel": "072-672-3450",
    "lat": "34.818971",
    "lng": "135.628921",
    "near": "阪急京都線「高槻市」・JR「高槻」から京阪バス「大塚」下車約300ｍ／「竹ノ内町」下車約100ｍ",
    "course1": "普通科",
    "course2": "",
    "course3": "",
    "course4": "",
    "course5": "",
    "course6": ""
  },
  {
    "id": "184",
    "name": "大正白稜高等学校",
    "ruby": "たいしょうはくりょうこうとうがっこう",
    "site": "https://www.osaka-c.ed.jp/taishohakuryo/",
    "address": "大阪府大阪市大正区大正区泉尾3丁目19-50",
    "label": "公立",
    "education": "共学校",
    "course": "総合学科",
    "tel": "06-6552-0026",
    "lat": "34.658568",
    "lng": "135.470078",
    "near": "JR環状線「大正」：南西1200ｍ／大阪シティバス「永楽橋筋」西300ｍ",
    "course1": "総合学科",
    "course2": "",
    "course3": "",
    "course4": "",
    "course5": "",
    "course6": ""
  },
  {
    "id": "185",
    "name": "高石高等学校",
    "ruby": "たかいしこうとうがっこう",
    "site": "https://www.osaka-c.ed.jp/takaishi/",
    "address": "大阪府高石市千代田6-12-1",
    "label": "公立",
    "education": "共学校",
    "course": "普通科",
    "tel": "072-265-1941",
    "lat": "34.518694",
    "lng": "135.423367",
    "near": "南海本線「北助松」北西約800ｍ",
    "course1": "普通科",
    "course2": "",
    "course3": "",
    "course4": "",
    "course5": "",
    "course6": ""
  },
  {
    "id": "186",
    "name": "高槻北高等学校",
    "ruby": "たかつききたこうとうがっこう",
    "site": "https://www.osaka-c.ed.jp/takatsukikita/",
    "address": "大阪府高槻市別所本町36-3",
    "label": "公立",
    "education": "共学校",
    "course": "普通科",
    "tel": "072-683-8739",
    "lat": "34.865745",
    "lng": "135.62545",
    "near": "阪急京都線「高槻市」・JR「高槻」から高槻市バス「別所本町公園北」下車約300ｍ",
    "course1": "普通科",
    "course2": "",
    "course3": "",
    "course4": "",
    "course5": "",
    "course6": ""
  },
  {
    "id": "187",
    "name": "中央高等学校",
    "ruby": "ちゅうおうこうとうがっこう",
    "site": "https://www3.osaka-c.ed.jp/chuo",
    "address": "大阪府大阪市中央区釣鐘町1-1-5",
    "label": "公立",
    "education": "共学校",
    "course": "普通科、ビジネス科",
    "tel": "06-6944-4401",
    "lat": "34.688195",
    "lng": "135.516384",
    "near": "大阪メトロ谷町線「天満橋」南80ｍ／京阪「天満橋」南200ｍ",
    "course1": "普通科",
    "course2": "ビジネス科",
    "course3": "",
    "course4": "",
    "course5": "",
    "course6": ""
  },
  {
    "id": "188",
    "name": "槻の木高等学校",
    "ruby": "つきのきこうとうがっこう",
    "site": "https://www.osaka-c.ed.jp/tsukinoki/",
    "address": "大阪府高槻市城内町2-13",
    "label": "公立",
    "education": "共学校",
    "course": "普通科単位制",
    "tel": "072-675-2600",
    "lat": "34.843128",
    "lng": "135.620605",
    "near": "阪急京都線「高槻市」南約700ｍ／JR「高槻」南約1ｋｍ",
    "course1": "普通科単位制",
    "course2": "",
    "course3": "",
    "course4": "",
    "course5": "",
    "course6": ""
  },
  {
    "id": "189",
    "name": "鶴見商業高等学校",
    "ruby": "つるみしょうぎょうこうとうがっこう",
    "site": "https://www3.osaka-c.ed.jp/tsurumi-b/",
    "address": "大阪府大阪市鶴見区緑2-10-9",
    "label": "公立",
    "education": "共学校",
    "course": "商業科",
    "tel": "06-6911-0415",
    "lat": "34.709353",
    "lng": "135.566507",
    "near": "大阪メトロ今里筋線「新森古市」南東1300ｍ／長堀鶴見緑地線「今福鶴見」北東1500ｍ／京阪本線「関目」東1900ｍ／大阪市バス「鶴見六丁目」東600ｍ",
    "course1": "商業科",
    "course2": "",
    "course3": "",
    "course4": "",
    "course5": "",
    "course6": ""
  },
  {
    "id": "190",
    "name": "天王寺高等学校",
    "ruby": "てんのうじこうとうがっこう",
    "site": "https://www2.osaka-c.ed.jp/tennoji/",
    "address": "大阪府大阪市阿倍野区三明町2-4-23",
    "label": "公立",
    "education": "共学校",
    "course": "文理学科",
    "tel": "06-6629-6801",
    "lat": "34.639524",
    "lng": "135.521035",
    "near": "JR阪和線「美章園」西300ｍ／近鉄南大阪線「河堀口」南西400ｍ／大阪メトロ谷町線「文の里」北東700ｍ",
    "course1": "文理学科",
    "course2": "",
    "course3": "",
    "course4": "",
    "course5": "",
    "course6": ""
  },
  {
    "id": "191",
    "name": "豊島高等学校",
    "ruby": "としまこうとうがっこう",
    "site": "https://www.osaka-c.ed.jp/teshima/",
    "address": "大阪府豊中市北緑丘3-2-1",
    "label": "公立",
    "education": "共学校",
    "course": "普通科",
    "tel": "06-6849-7651",
    "lat": "34.816649",
    "lng": "135.485476",
    "near": "北大阪急行「千里中央」・阪急宝塚線「豊中」から阪急バス「豊島高校前」",
    "course1": "普通科",
    "course2": "",
    "course3": "",
    "course4": "",
    "course5": "",
    "course6": ""
  },
  {
    "id": "192",
    "name": "刀根山高等学校",
    "ruby": "とねやまこうとうがっこう",
    "site": "https://www.osaka-c.ed.jp/toneyama/",
    "address": "大阪府豊中市刀根山6-9-1",
    "label": "公立",
    "education": "共学校",
    "course": "普通科",
    "tel": "06-6843-3781",
    "lat": "34.798736",
    "lng": "135.453218",
    "near": "阪急宝塚線・大阪モノレール「蛍池」駅北東約700ｍ／大阪モノレール「柴原阪大前」南西約900ｍ",
    "course1": "普通科",
    "course2": "",
    "course3": "",
    "course4": "",
    "course5": "",
    "course6": ""
  },
  {
    "id": "193",
    "name": "登美丘高等学校",
    "ruby": "とみおかこうとうがっこう",
    "site": "https://www.osaka-c.ed.jp/tomioka/",
    "address": "大阪府堺市東区西野51",
    "label": "公立",
    "education": "共学校",
    "course": "普通科",
    "tel": "072-236-5041",
    "lat": "34.519041",
    "lng": "135.540453",
    "near": "南海高野線「北野田」南西650ｍ",
    "course1": "普通科",
    "course2": "",
    "course3": "",
    "course4": "",
    "course5": "",
    "course6": ""
  },
  {
    "id": "194",
    "name": "豊中高等学校",
    "ruby": "とよなかこうとうがっこう",
    "site": "https://www2.osaka-c.ed.jp/toyonaka/",
    "address": "大阪府豊中市上野西2-5-12",
    "label": "公立",
    "education": "共学校",
    "course": "文理学科",
    "tel": "06-6854-1207",
    "lat": "34.795783",
    "lng": "135.470547",
    "near": "阪急宝塚線「豊中」北東徒歩約15分／大阪モノレール「少路」南西徒歩約15分／阪急宝塚線「豊中」・北大阪急行「千里中央」・「桃山台」から阪急バス「豊中高校前」下車",
    "course1": "文理学科",
    "course2": "",
    "course3": "",
    "course4": "",
    "course5": "",
    "course6": ""
  },
  {
    "id": "195",
    "name": "豊中高等学校能勢分校",
    "ruby": "とよなかこうとうがっこうのせぶんこう",
    "site": "http://www.nose-highschool.ed.jp/bunkou/",
    "address": "大阪府豊能郡能勢町上田尻580",
    "label": "公立",
    "education": "共学校",
    "course": "総合学科",
    "tel": "072-737-0666",
    "lat": "34.97264",
    "lng": "135.447927",
    "near": "能勢電鉄「山下」から阪急バス「口山内」下車／能勢電鉄「妙見口」から阪急バス「奥山内」下車500ｍ",
    "course1": "総合学科",
    "course2": "",
    "course3": "",
    "course4": "",
    "course5": "",
    "course6": ""
  },
  {
    "id": "196",
    "name": "富田林高等学校",
    "ruby": "とんだばやしこうとうがっこう",
    "site": "https://tonko.ed.jp/",
    "address": "大阪府富田林市谷川町4-30",
    "label": "公立",
    "education": "共学校",
    "course": "普通科",
    "tel": "0721-23-2281",
    "lat": "34.497563",
    "lng": "135.599161",
    "near": "近鉄長野線「富田林西口」南へ500ｍ",
    "course1": "普通科",
    "course2": "",
    "course3": "",
    "course4": "",
    "course5": "",
    "course6": ""
  },
  {
    "id": "197",
    "name": "長尾高等学校",
    "ruby": "ながおこうとうがっこう",
    "site": "https://www.nagaohighschool.com/",
    "address": "大阪府枚方市長尾家具町5-1-1",
    "label": "公立",
    "education": "共学校",
    "course": "普通科",
    "tel": "072-855-1700",
    "lat": "34.837512",
    "lng": "135.702288",
    "near": "京阪「樟葉」から京阪バス「ポエムノール北山」下車3分／JR「長尾」から京阪バス「ポエムノ－ル北山」下車3分",
    "course1": "普通科",
    "course2": "",
    "course3": "",
    "course4": "",
    "course5": "",
    "course6": ""
  },
  {
    "id": "198",
    "name": "長野高等学校",
    "ruby": "ながのこうとうがっこう",
    "site": "https://www.osaka-c.ed.jp/nagano/",
    "address": "大阪府河内長野市原町2丁目1-1",
    "label": "公立",
    "education": "共学校",
    "course": "普通科、国際教養科",
    "tel": "0721-53-7371",
    "lat": "34.459546",
    "lng": "135.563345",
    "near": "南海高野線「千代田」南西約800ｍ／近鉄長野線「河内長野」北西約1．2ｋｍ",
    "course1": "普通科",
    "course2": "国際教養科",
    "course3": "",
    "course4": "",
    "course5": "",
    "course6": ""
  },
  {
    "id": "199",
    "name": "長吉高等学校",
    "ruby": "ながよしこうとうがっこう",
    "site": "https://www.osaka-c.ed.jp/nagayoshi/",
    "address": "大阪府大阪市平野区長吉長原西3-11-33",
    "label": "公立",
    "education": "共学校",
    "course": "総合学科（エンパワメントスクール）",
    "tel": "06-6790-0700",
    "lat": "34.599151",
    "lng": "135.566701",
    "near": "大阪メトロ谷町線「長原」西約1．1ｋｍ・「出戸」南1．5ｋｍ／「出戸」から大阪市バス「長吉高校前」下車",
    "course1": "総合学科（エンパワメントスクール）",
    "course2": "",
    "course3": "",
    "course4": "",
    "course5": "",
    "course6": ""
  },
  {
    "id": "200",
    "name": "西成高等学校",
    "ruby": "にしなりこうとうがっこう",
    "site": "https://www.osaka-c.ed.jp/nishinari/",
    "address": "大阪府大阪市西成区津守1-13-10",
    "label": "公立",
    "education": "共学校",
    "course": "総合学科（ステップスクール）",
    "tel": "06-6562-5751",
    "lat": "34.647536",
    "lng": "135.482016",
    "near": "南海汐見橋線「津守」すぐ／大阪市バス「鶴見橋通」西200ｍ",
    "course1": "総合学科（ステップスクール）",
    "course2": "",
    "course3": "",
    "course4": "",
    "course5": "",
    "course6": ""
  },
  {
    "id": "201",
    "name": "西寝屋川高等学校",
    "ruby": "にしねやがわこうとうがっこう",
    "site": "https://www.osaka-c.ed.jp/nishineyagawa/",
    "address": "大阪府寝屋川市葛原2-19-1",
    "label": "公立",
    "education": "共学校",
    "course": "普通科",
    "tel": "072-828-6700",
    "lat": "34.771726",
    "lng": "135.601583",
    "near": "京阪「寝屋川市」からバス「対馬江」徒歩10分",
    "course1": "普通科",
    "course2": "",
    "course3": "",
    "course4": "",
    "course5": "",
    "course6": ""
  },
  {
    "id": "202",
    "name": "西野田工科高等学校（2025年度から今宮工科高等学校に統合）",
    "ruby": "にしのだこうかこうとうがっこう",
    "site": "https://www.osaka-c.ed.jp/nishinoda-t/",
    "address": "大阪府大阪市福島区大開2-17-62",
    "label": "公立",
    "education": "共学校",
    "course": "工業に関する学科【機械系・電気系・建築都市工学系・工業デザイン系】",
    "tel": "06-6461-0023",
    "lat": "34.693644",
    "lng": "135.469117",
    "near": "阪神電鉄本線「野田」西300ｍ／大阪メトロ千日前線「野田阪神」西300ｍ／JR東西線「海老江」西300ｍ",
    "course1": "工業に関する学科【機械系・電気系・建築都市工学系・工業デザイン系】",
    "course2": "",
    "course3": "",
    "course4": "",
    "course5": "",
    "course6": ""
  },
  {
    "id": "203",
    "name": "寝屋川高等学校",
    "ruby": "ねやがわこうとうがっこう",
    "site": "https://www.osaka-c.ed.jp/neyagawa/",
    "address": "大阪府寝屋川市本町15-64",
    "label": "公立",
    "education": "共学校",
    "course": "普通科",
    "tel": "072-821-0546",
    "lat": "34.765097",
    "lng": "135.625773",
    "near": "京阪「寝屋川市」東500ｍ",
    "course1": "普通科",
    "course2": "",
    "course3": "",
    "course4": "",
    "course5": "",
    "course6": ""
  },
  {
    "id": "204",
    "name": "農芸高等学校",
    "ruby": "のうげいこうとうがっこう",
    "site": "https://www.osaka-c.ed.jp/nogei/",
    "address": "大阪府堺市美原区北余部595-1",
    "label": "公立",
    "education": "共学校",
    "course": "農業に関する学科【ハイテク農芸・食品加工・資源動物】",
    "tel": "072-361-0581",
    "lat": "34.537874",
    "lng": "135.551695",
    "near": "南海高野線「初芝」から南海バス「農芸高校前」下車東100ｍ／近鉄南大阪線「河内松原」から近鉄バス「余部」下車西100ｍ",
    "course1": "農業に関する学科【ハイテク農芸・食品加工・資源動物】",
    "course2": "",
    "course3": "",
    "course4": "",
    "course5": "",
    "course6": ""
  },
  {
    "id": "205",
    "name": "野崎高等学校",
    "ruby": "のざきこうとうがっこう",
    "site": "https://www.osaka-c.ed.jp/nozaki/",
    "address": "大阪府大東市寺川1-2-1",
    "label": "公立",
    "education": "共学校",
    "course": "普通科",
    "tel": "072-874-0911",
    "lat": "34.709437",
    "lng": "135.641707",
    "near": "JR学研都市線「野崎」南1．2ｋｍ／近鉄バス「寺川」下車",
    "course1": "普通科",
    "course2": "",
    "course3": "",
    "course4": "",
    "course5": "",
    "course6": ""
  },
  {
    "id": "206",
    "name": "伯太高等学校",
    "ruby": "はかたこうとうがっこう",
    "site": "https://www.osaka-c.ed.jp/hakata/",
    "address": "大阪府和泉市伯太町2-4-11",
    "label": "公立",
    "education": "共学校",
    "course": "総合学科",
    "tel": "0725-45-9321",
    "lat": "34.490859",
    "lng": "135.433551",
    "near": "JR阪和線「和泉府中」北東約1ｋｍ",
    "course1": "総合学科",
    "course2": "",
    "course3": "",
    "course4": "",
    "course5": "",
    "course6": ""
  },
  {
    "id": "207",
    "name": "花園高等学校",
    "ruby": "はなぞのこうとうがっこう",
    "site": "https://www.osaka-c.ed.jp/hanazono/",
    "address": "大阪府東大阪市花園東町3-1-25",
    "label": "公立",
    "education": "共学校",
    "course": "普通科、国際教養科",
    "tel": "072-961-4925",
    "lat": "34.65879",
    "lng": "135.623373",
    "near": "近鉄奈良線「東花園」南へ約400ｍ",
    "course1": "普通科",
    "course2": "国際教養科",
    "course3": "",
    "course4": "",
    "course5": "",
    "course6": ""
  },
  {
    "id": "208",
    "name": "汎愛高等学校",
    "ruby": "はんあいこうとうがっこう",
    "site": "https://www3.osaka-c.ed.jp/han-ai",
    "address": "大阪府大阪市鶴見区今津中2-1-52",
    "label": "公立",
    "education": "共学校",
    "course": "普通科、体育科、武道科",
    "tel": "06-6961-0431",
    "lat": "34.69299",
    "lng": "135.570222",
    "near": "JR学研都市線「放出」北東1．2ｋｍ／大阪シティバス「汎愛高校前」",
    "course1": "普通科",
    "course2": "体育科",
    "course3": "武道科",
    "course4": "",
    "course5": "",
    "course6": ""
  },
  {
    "id": "209",
    "name": "阪南高等学校",
    "ruby": "はんなんこうとうがっこう",
    "site": "https://www.osaka-c.ed.jp/hannan/",
    "address": "大阪府大阪市住吉区庭井2-18-81",
    "label": "公立",
    "education": "共学校",
    "course": "普通科",
    "tel": "06-6692-0356",
    "lat": "34.595355",
    "lng": "135.517462",
    "near": "大阪メトロ御堂筋線「あびこ」東南東540ｍ",
    "course1": "普通科",
    "course2": "",
    "course3": "",
    "course4": "",
    "course5": "",
    "course6": ""
  },
  {
    "id": "210",
    "name": "東大阪市立日新高等学校",
    "ruby": "ひがしおおさかしりつにっしんこうとうがっこう",
    "site": "https://school.higashiosaka-osk.ed.jp/nisshin-h/",
    "address": "大阪府東大阪市日下町7-9-11",
    "label": "公立",
    "education": "共学校",
    "course": "英語科、普通科、商業科",
    "tel": "072-985-5551",
    "lat": "34.694743",
    "lng": "135.651717",
    "near": "近鉄奈良線「石切」北西1，6Ｋｍ／近鉄東大阪線「新石切」、JR学研都市線「住道」より近鉄バス「孔舎衙小学校前」下車、東へ1，2Ｋｍ",
    "course1": "英語科",
    "course2": "普通科",
    "course3": "商業科",
    "course4": "",
    "course5": "",
    "course6": ""
  },
  {
    "id": "211",
    "name": "東高等学校",
    "ruby": "ひがしこうとうがっこう",
    "site": "https://www3.osaka-c.ed.jp/higashi",
    "address": "大阪府大阪市都島区東野田町4-15-14",
    "label": "公立",
    "education": "共学校",
    "course": "普通科、理数科、英語科",
    "tel": "06-6354-1251",
    "lat": "34.699571",
    "lng": "135.529104",
    "near": "JR環状線・学研都市線・京阪「京橋」北西700ｍ／JR東西線「大阪城北詰」北800ｍ／大阪メトロ鶴見緑地線「京橋」北西500ｍ／市バス「都島区役所前」「東野田」200ｍ",
    "course1": "普通科",
    "course2": "理数科",
    "course3": "英語科",
    "course4": "",
    "course5": "",
    "course6": ""
  },
  {
    "id": "212",
    "name": "東住吉高等学校",
    "ruby": "ひがしすみよしこうとうがっこう",
    "site": "https://www.osaka-c.ed.jp/higashisumiyoshi/",
    "address": "大阪府大阪市平野区平野西2-3-77",
    "label": "公立",
    "education": "共学校",
    "course": "普通科、芸能文化科",
    "tel": "06-6702-3838",
    "lat": "34.617153",
    "lng": "135.54143",
    "near": "大阪メトロ谷町線「駒川中野」南東約1100ｍ￥「平野」南西約1100ｍ／近鉄南大阪線「針中野」東約900ｍ",
    "course1": "普通科",
    "course2": "芸能文化科",
    "course3": "",
    "course4": "",
    "course5": "",
    "course6": ""
  },
  {
    "id": "213",
    "name": "東住吉総合高等学校",
    "ruby": "ひがしすみよしそうごうこうとうがっこう",
    "site": "https://www.osaka-c.ed.jp/higashisumiyoshi-t/",
    "address": "大阪府大阪市平野区喜連西2-11-66",
    "label": "公立",
    "education": "共学校",
    "course": "総合学科（クリエイティブスクール）",
    "tel": "06-6702-1231",
    "lat": "34.613523",
    "lng": "135.544397",
    "near": "大阪メトロ谷町線「喜連瓜破」北西約1ｋｍ／近鉄南大阪線「針中野」東南約1．5ｋｍ",
    "course1": "総合学科（クリエイティブスクール）",
    "course2": "",
    "course3": "",
    "course4": "",
    "course5": "",
    "course6": ""
  },
  {
    "id": "214",
    "name": "東百舌鳥高等学校",
    "ruby": "ひがしもずこうとうがっこう",
    "site": "https://www.osaka-c.ed.jp/higashimozu/",
    "address": "大阪府堺市中区土塔町2377-5",
    "label": "公立",
    "education": "共学校",
    "course": "普通科",
    "tel": "072-235-3781",
    "lat": "34.535409",
    "lng": "135.512236",
    "near": "南海高野線「初芝」南西1，8Ｋｍ・「中百舌鳥」または「北野田」より南海バス「大野芝」下車西500ｍ／泉北高速鉄道「深井」北東1，6Ｋｍ",
    "course1": "普通科",
    "course2": "",
    "course3": "",
    "course4": "",
    "course5": "",
    "course6": ""
  },
  {
    "id": "215",
    "name": "東淀川高等学校",
    "ruby": "ひがしよどがわこうとうがっこう",
    "site": "https://www.osaka-c.ed.jp/higashiyodogawa/",
    "address": "大阪府大阪市淀川区宮原4-4-5",
    "label": "公立",
    "education": "共学校",
    "course": "普通科",
    "tel": "06-6391-2427",
    "lat": "34.736117",
    "lng": "135.497612",
    "near": "大阪メトロ御堂筋線「新大阪」徒歩4分・JR「新大阪」徒歩10分",
    "course1": "普通科",
    "course2": "",
    "course3": "",
    "course4": "",
    "course5": "",
    "course6": ""
  },
  {
    "id": "216",
    "name": "東淀工業高等学校",
    "ruby": "ひがしよどこうぎょうこうとうがっこう",
    "site": "https://www3.osaka-c.ed.jp/higashiyodo-t",
    "address": "大阪府大阪市淀川区加島1-52-81",
    "label": "公立",
    "education": "共学校",
    "course": "機械工学科、電気工学科、理工学科",
    "tel": "06-6302-1035",
    "lat": "34.725716",
    "lng": "135.462204",
    "near": "JR東西線「加島」東800ｍ／大阪市バス・阪急バス「東淀工業高校前」西300ｍ",
    "course1": "機械工学科",
    "course2": "電気工学科",
    "course3": "理工学科",
    "course4": "",
    "course5": "",
    "course6": ""
  },
  {
    "id": "217",
    "name": "日根野高等学校",
    "ruby": "ひねのこうとうがっこう",
    "site": "https://www.osaka-c.ed.jp/hineno/",
    "address": "大阪府泉佐野市日根野2372-1",
    "label": "公立",
    "education": "共学校",
    "course": "普通科",
    "tel": "072-467-1555",
    "lat": "34.39132",
    "lng": "135.338194",
    "near": "JR阪和線「日根野」北東約800ｍ",
    "course1": "普通科",
    "course2": "",
    "course3": "",
    "course4": "",
    "course5": "",
    "course6": ""
  },
  {
    "id": "218",
    "name": "枚岡樟風高等学校",
    "ruby": "ひらおかしょうふうこうとうがっこう",
    "site": "https://www.osaka-c.ed.jp/hiraokashofu/",
    "address": "大阪府東大阪市鷹殿町18-1",
    "label": "公立",
    "education": "共学校",
    "course": "総合学科",
    "tel": "072-982-5437",
    "lat": "34.668209",
    "lng": "135.635904",
    "near": "近鉄「奈良線」瓢箪山北900ｍ／近鉄けいはんな線「新石切」バス「東体育館前」下車約150ｍ",
    "course1": "総合学科",
    "course2": "",
    "course3": "",
    "course4": "",
    "course5": "",
    "course6": ""
  },
  {
    "id": "219",
    "name": "枚方高等学校",
    "ruby": "ひらかたこうとうがっこう",
    "site": "https://www.osaka-c.ed.jp/hirakata/",
    "address": "大阪府枚方市大垣内町3-16-1",
    "label": "公立",
    "education": "共学校",
    "course": "普通科、国際教養科",
    "tel": "072-843-3081",
    "lat": "34.810759",
    "lng": "135.655014",
    "near": "京阪「枚方市」南南東800ｎ",
    "course1": "普通科",
    "course2": "国際教養科",
    "course3": "",
    "course4": "",
    "course5": "",
    "course6": ""
  },
  {
    "id": "220",
    "name": "枚方津田高等学校",
    "ruby": "ひらかたつだこうとうがっこう",
    "site": "https://www.osaka-c.ed.jp/hirakatatsuda/",
    "address": "大阪府枚方市津田北町2-50-1",
    "label": "公立",
    "education": "共学校",
    "course": "普通科",
    "tel": "072-858-7003",
    "lat": "34.813186",
    "lng": "135.703453",
    "near": "JR学研都市線「藤阪」南東300ｍ",
    "course1": "普通科",
    "course2": "",
    "course3": "",
    "course4": "",
    "course5": "",
    "course6": ""
  },
  {
    "id": "221",
    "name": "枚方なぎさ高等学校",
    "ruby": "ひらかたなぎさこうとうがっこう",
    "site": "https://www.osaka-c.ed.jp/hirakatanagisa/",
    "address": "大阪府枚方市磯島元町20-1",
    "label": "公立",
    "education": "共学校",
    "course": "総合学科",
    "tel": "072-847-1001",
    "lat": "34.82506",
    "lng": "135.648208",
    "near": "京阪「御殿山」南約600ｍ・「枚方市」北約1．2ｋｍ／京阪バス［磯島］北300ｍ",
    "course1": "総合学科",
    "course2": "",
    "course3": "",
    "course4": "",
    "course5": "",
    "course6": ""
  },
  {
    "id": "222",
    "name": "福井高等学校",
    "ruby": "ふくいこうとうがっこう",
    "site": "https://www.osaka-c.ed.jp/fukui/",
    "address": "大阪府茨木市西福井3-33-11",
    "label": "公立",
    "education": "共学校",
    "course": "総合学科",
    "tel": "072-641-4361",
    "lat": "34.8459",
    "lng": "135.550128",
    "near": "JR「茨木」・阪急「茨木市」から阪急バス「福井」北西420ｍ",
    "course1": "総合学科",
    "course2": "",
    "course3": "",
    "course4": "",
    "course5": "",
    "course6": ""
  },
  {
    "id": "223",
    "name": "福泉高等学校",
    "ruby": "ふくいずみこうとうがっこう",
    "site": "https://www.osaka-c.ed.jp/fukuizumi/",
    "address": "大阪府堺市西区太平寺323",
    "label": "公立",
    "education": "共学校",
    "course": "普通科",
    "tel": "072-299-9500",
    "lat": "34.505271",
    "lng": "135.480107",
    "near": "JR阪和線「鳳」／泉北高速鉄道「栂・美木多」から南海バス「福泉高校前」下車東200ｍ",
    "course1": "普通科",
    "course2": "",
    "course3": "",
    "course4": "",
    "course5": "",
    "course6": ""
  },
  {
    "id": "224",
    "name": "藤井寺工科高等学校",
    "ruby": "ふじいでらこうかこうとうがっこう",
    "site": "https://www.osaka-c.ed.jp/fujiidera-t/",
    "address": "大阪府藤井寺市御舟町10-1",
    "label": "公立",
    "education": "共学校",
    "course": "工業に関する学科【機械系・電気系・メカトロニクス系】",
    "tel": "072-955-0281",
    "lat": "34.573118",
    "lng": "135.601375",
    "near": "近鉄南大阪線「藤井寺」東500ｍ",
    "course1": "工業に関する学科【機械系・電気系・メカトロニクス系】",
    "course2": "",
    "course3": "",
    "course4": "",
    "course5": "",
    "course6": ""
  },
  {
    "id": "225",
    "name": "藤井寺高等学校",
    "ruby": "ふじいでらこうとうがっこう",
    "site": "https://www.osaka-c.ed.jp/fujiidera/",
    "address": "大阪府藤井寺市津堂3-516",
    "label": "公立",
    "education": "共学校",
    "course": "普通科",
    "tel": "072-939-7750",
    "lat": "34.583136",
    "lng": "135.583481",
    "near": "近鉄南大阪線「藤井寺」北西2．2ｋｍ・「高鷲」北1．6ｋｍ／大阪メトロ谷町線「八尾南」南西2．8ｋｍ・「長原」南2．5ｋｍ／近鉄バス「大正橋南詰」西800ｍ",
    "course1": "普通科",
    "course2": "",
    "course3": "",
    "course4": "",
    "course5": "",
    "course6": ""
  },
  {
    "id": "226",
    "name": "布施北高等学校",
    "ruby": "ふせきたこうとうがっこう",
    "site": "https://www.osaka-c.ed.jp/fusekita/",
    "address": "大阪府東大阪市荒本西1-2-72",
    "label": "公立",
    "education": "共学校",
    "course": "総合学科（エンパワメントスクール）",
    "tel": "06-6787-2666",
    "lat": "34.671809",
    "lng": "135.60097",
    "near": "近鉄けいはんな線「荒本」南へ約1ｋｍ／近鉄奈良線「若江岩田」北西約1．4ｋｍ",
    "course1": "総合学科（エンパワメントスクール）",
    "course2": "",
    "course3": "",
    "course4": "",
    "course5": "",
    "course6": ""
  },
  {
    "id": "227",
    "name": "布施工科高等学校（2025年度募集停止）",
    "ruby": "ふせこうかこうとうがっこう",
    "site": "https://www.osaka-c.ed.jp/fuse-t/",
    "address": "大阪府東大阪市宝持3-7-5",
    "label": "公立",
    "education": "共学校",
    "course": "工業に関する学科【機械系・電気系・建築設備系】",
    "tel": "06-6722-0221",
    "lat": "34.654329",
    "lng": "135.592683",
    "near": "近鉄奈良線「八戸ノ里」徒歩15分・近鉄バス「宝持」下車東3分",
    "course1": "工業に関する学科【機械系・電気系・建築設備系】",
    "course2": "",
    "course3": "",
    "course4": "",
    "course5": "",
    "course6": ""
  },
  {
    "id": "228",
    "name": "布施高等学校",
    "ruby": "ふせこうとうがっこう",
    "site": "https://www.osaka-c.ed.jp/fuse/",
    "address": "大阪府東大阪市下小阪3-14-21",
    "label": "公立",
    "education": "共学校",
    "course": "普通科",
    "tel": "06-6723-7500",
    "lat": "34.661893",
    "lng": "135.587245",
    "near": "近鉄奈良線「八戸ノ里」約200ｍ",
    "course1": "普通科",
    "course2": "",
    "course3": "",
    "course4": "",
    "course5": "",
    "course6": ""
  },
  {
    "id": "229",
    "name": "北摂つばさ高等学校",
    "ruby": "ほくせつつばさこうとうがっこう",
    "site": "https://www2.osaka-c.ed.jp/hokusetsutsubasa/index.html",
    "address": "大阪府茨木市玉島台2-15",
    "label": "公立",
    "education": "共学校",
    "course": "普通科",
    "tel": "072-633-2000",
    "lat": "34.80178",
    "lng": "135.584805",
    "near": "阪急京都線「茨木市」・JR「茨木」から近鉄バス「北摂つばさ高校前」下車、阪急京都線「南茨木」・大阪モノレール「南茨木駅」から東へ2ｋｍ",
    "course1": "普通科",
    "course2": "",
    "course3": "",
    "course4": "",
    "course5": "",
    "course6": ""
  },
  {
    "id": "230",
    "name": "牧野高等学校",
    "ruby": "まきのこうとうがっこう",
    "site": "https://www.osaka-c.ed.jp/makino/",
    "address": "大阪府枚方市南船橋1-11-1",
    "label": "公立",
    "education": "共学校",
    "course": "普通科",
    "tel": "072-851-1050",
    "lat": "34.846821",
    "lng": "135.680179",
    "near": "京阪「牧野」北東1500ｍ／「樟葉」から京阪バス「関西記念病院前」下車西へ300ｍ",
    "course1": "普通科",
    "course2": "",
    "course3": "",
    "course4": "",
    "course5": "",
    "course6": ""
  },
  {
    "id": "231",
    "name": "松原高等学校",
    "ruby": "まつばらこうとうがっこう",
    "site": "https://www.osaka-c.ed.jp/matsubara/",
    "address": "大阪府松原市三宅東3-4-1",
    "label": "公立",
    "education": "共学校",
    "course": "総合学科",
    "tel": "072-334-8008",
    "lat": "34.590701",
    "lng": "135.562746",
    "near": "近鉄南大阪線「河内松原」「河内天美」それぞれ2．5ｋｍ／大阪メトロ谷町線［喜連瓜破］［出戸］［長原］それぞれ2．5ｋｍ",
    "course1": "総合学科",
    "course2": "",
    "course3": "",
    "course4": "",
    "course5": "",
    "course6": ""
  },
  {
    "id": "232",
    "name": "三国丘高等学校",
    "ruby": "みくにがおかこうとうがっこう",
    "site": "https://www.osaka-c.ed.jp/mikunigaoka/",
    "address": "大阪府堺市堺区南三国ｹ丘町2-2-36",
    "label": "公立",
    "education": "共学校",
    "course": "文理学科",
    "tel": "072-233-6005",
    "lat": "34.573351",
    "lng": "135.489273",
    "near": "南海高野線「堺東」東300ｍ／南海本線「天下茶屋」6分／南海高野線「難波」12分・「河内長野」15分／大阪メトロ堺筋線「南森町」25分",
    "course1": "文理学科",
    "course2": "",
    "course3": "",
    "course4": "",
    "course5": "",
    "course6": ""
  },
  {
    "id": "233",
    "name": "岬高等学校",
    "ruby": "みさきこうとうがっこう",
    "site": "https://www.osaka-c.ed.jp/misaki/",
    "address": "大阪府泉南郡岬町淡輪3246",
    "label": "公立",
    "education": "共学校",
    "course": "総合学科（ステップスクール）",
    "tel": "072-494-0301",
    "lat": "34.322694",
    "lng": "135.170981",
    "near": "南海本線「みさき公園」東約1000ｍ",
    "course1": "総合学科（ステップスクール）",
    "course2": "",
    "course3": "",
    "course4": "",
    "course5": "",
    "course6": ""
  },
  {
    "id": "234",
    "name": "三島高等学校",
    "ruby": "みしまこうとうがっこう",
    "site": "https://www.osaka-c.ed.jp/mishima/",
    "address": "大阪府高槻市今城町27-1",
    "label": "公立",
    "education": "共学校",
    "course": "普通科",
    "tel": "072-682-5884",
    "lat": "34.845791",
    "lng": "135.597999",
    "near": "JR「摂津富田」北東1．6ｋｍ・JR京都線「高槻」高槻駅北から高槻市バス「明治大阪工場前」下車約600ｍ",
    "course1": "普通科",
    "course2": "",
    "course3": "",
    "course4": "",
    "course5": "",
    "course6": ""
  },
  {
    "id": "235",
    "name": "みどり清朋高等学校",
    "ruby": "みどりせいほうこうとうがっこう",
    "site": "https://www.osaka-c.ed.jp/midoriseiho/",
    "address": "大阪府東大阪市池島町6-3-9",
    "label": "公立",
    "education": "共学校",
    "course": "普通科",
    "tel": "072-987-3302",
    "lat": "34.64652",
    "lng": "135.627758",
    "near": "近鉄大阪線「山本」から近鉄バス「北山本」東1，1Ｋｍ／近鉄奈良線「東花園」南2ｋｍ・「河内花園」から近鉄バス「北山本」下車東1，1Ｋｍ",
    "course1": "普通科",
    "course2": "",
    "course3": "",
    "course4": "",
    "course5": "",
    "course6": ""
  },
  {
    "id": "236",
    "name": "港高等学校",
    "ruby": "みなとこうとうがっこう",
    "site": "https://www.osaka-c.ed.jp/minato/",
    "address": "大阪府大阪市港区波除2-3-1",
    "label": "公立",
    "education": "共学校",
    "course": "普通科",
    "tel": "06-6583-1401",
    "lat": "34.671734",
    "lng": "135.46523",
    "near": "JR環状線・大阪メトロ中央線「弁天町」東約5分300ｍ",
    "course1": "普通科",
    "course2": "",
    "course3": "",
    "course4": "",
    "course5": "",
    "course6": ""
  },
  {
    "id": "237",
    "name": "箕面高等学校",
    "ruby": "みのおこうとうがっこう",
    "site": "https://www.osaka-c.ed.jp/minoo/",
    "address": "大阪府箕面市牧落4-8-66",
    "label": "公立",
    "education": "共学校",
    "course": "普通科、グローバル科",
    "tel": "072-721-7091",
    "lat": "34.820557",
    "lng": "135.474494",
    "near": "阪急宝塚線「豊中」から阪急バス「永楽荘4丁目」／大阪モノレール「豊川」駅から阪急バス「箕面高校前」下車すぐ",
    "course1": "普通科",
    "course2": "グローバル科",
    "course3": "",
    "course4": "",
    "course5": "",
    "course6": ""
  },
  {
    "id": "238",
    "name": "箕面東高等学校",
    "ruby": "みのおひがしこうとうがっこう",
    "site": "https://www.osaka-c.ed.jp/minoohigashi/",
    "address": "大阪府箕面市粟生外院5-4-63",
    "label": "公立",
    "education": "共学校",
    "course": "総合学科（エンパワメントスクール）",
    "tel": "072-729-4008",
    "lat": "34.843015",
    "lng": "135.505667",
    "near": "阪急千里線「北千里」・北大阪急行「千里中央」・阪急箕面線「箕面」阪急バス「粟生団地」下車徒歩5分",
    "course1": "総合学科（エンパワメントスクール）",
    "course2": "",
    "course3": "",
    "course4": "",
    "course5": "",
    "course6": ""
  },
  {
    "id": "239",
    "name": "都島工業高等学校",
    "ruby": "みやこじまこうぎょうこうとうがっこう",
    "site": "https://www3.osaka-c.ed.jp/miyakojima-t",
    "address": "大阪府大阪市都島区善源寺町1-5-64",
    "label": "公立",
    "education": "共学校",
    "course": "機械科、機械電気科、電気電子工学科、建築科、都市工学科、理数工学科",
    "tel": "06-6921-0231",
    "lat": "34.709766",
    "lng": "135.52515",
    "near": "大阪メトロ谷町線「都島」西50ｍ／JR環状線「桜ノ宮」北東約1ｋｍ",
    "course1": "機械科",
    "course2": "機械電気科",
    "course3": "電気電子工学科",
    "course4": "建築科",
    "course5": "都市工学科",
    "course6": "理数工学科"
  },
  {
    "id": "240",
    "name": "桃谷高等学校",
    "ruby": "ももだにこうとうがっこう",
    "site": "https://www.osaka-c.ed.jp/momodani/",
    "address": "大阪府大阪市生野区勝山南3-1-4",
    "label": "公立",
    "education": "共学校",
    "course": "多部制単位制１・２部【普通科】",
    "tel": "06-6712-0371",
    "lat": "34.653331",
    "lng": "135.533332",
    "near": "JR環状線「桃谷」南東800ｍ",
    "course1": "多部制単位制１・２部【普通科】",
    "course2": "",
    "course3": "",
    "course4": "",
    "course5": "",
    "course6": ""
  },
  {
    "id": "241",
    "name": "守口東高等学校",
    "ruby": "もりぐちひがしこうとうがっこう",
    "site": "https://www.osaka-c.ed.jp/moriguchihigashi/",
    "address": "大阪府守口市八雲中町2-1-32",
    "label": "公立",
    "education": "共学校",
    "course": "普通科",
    "tel": "06-6906-8211",
    "lat": "34.745443",
    "lng": "135.567009",
    "near": "大阪メトロ谷町線「守口」北東800ｍ／京阪「守口市」北東1200ｍ",
    "course1": "普通科",
    "course2": "",
    "course3": "",
    "course4": "",
    "course5": "",
    "course6": ""
  },
  {
    "id": "242",
    "name": "八尾北高等学校",
    "ruby": "やおきたこうとうがっこう",
    "site": "https://www.osaka-c.ed.jp/yaokita/",
    "address": "大阪府八尾市萱振町7-42",
    "label": "公立",
    "education": "共学校",
    "course": "総合学科",
    "tel": "072-998-2100",
    "lat": "34.642638",
    "lng": "135.604586",
    "near": "近鉄大阪線「八尾」北1．2ｋｍ／JR大和路線「八尾」から近鉄バス・近鉄奈良線「若江岩田」から近鉄バス・JR学研都市線「住道」から近鉄バス「八尾北高校前」下車100ｍ",
    "course1": "総合学科",
    "course2": "",
    "course3": "",
    "course4": "",
    "course5": "",
    "course6": ""
  },
  {
    "id": "243",
    "name": "八尾高等学校",
    "ruby": "やおこうとうがっこう",
    "site": "https://www.osaka-c.ed.jp/yao/",
    "address": "大阪府八尾市高町1-74",
    "label": "公立",
    "education": "共学校",
    "course": "普通科",
    "tel": "072-923-4261",
    "lat": "34.623795",
    "lng": "135.594639",
    "near": "近鉄大阪線「八尾」南西1100ｍ／JR大和路線「八尾」北へ670ｍ",
    "course1": "普通科",
    "course2": "",
    "course3": "",
    "course4": "",
    "course5": "",
    "course6": ""
  },
  {
    "id": "244",
    "name": "八尾翠翔高等学校",
    "ruby": "やおすいしょうこうとうがっこう",
    "site": "https://www.osaka-c.ed.jp/yaosuisho/",
    "address": "大阪府八尾市神宮寺3-107",
    "label": "公立",
    "education": "共学校",
    "course": "普通科",
    "tel": "072-943-8107",
    "lat": "34.601285",
    "lng": "135.627536",
    "near": "近鉄大阪線「法善寺」北700ｍ・「恩智」南800ｍ／JR大和路線「志紀」東1300ｍ",
    "course1": "普通科",
    "course2": "",
    "course3": "",
    "course4": "",
    "course5": "",
    "course6": ""
  },
  {
    "id": "245",
    "name": "山田高等学校",
    "ruby": "やまだこうとうがっこう",
    "site": "https://www.osaka-c.ed.jp/yamada/",
    "address": "大阪府吹田市山田東3-28-1",
    "label": "公立",
    "education": "共学校",
    "course": "普通科",
    "tel": "06-6875-5010",
    "lat": "34.802633",
    "lng": "135.528993",
    "near": "大阪モノレール「万博記念公園」南600ｍ",
    "course1": "普通科",
    "course2": "",
    "course3": "",
    "course4": "",
    "course5": "",
    "course6": ""
  },
  {
    "id": "246",
    "name": "山本高等学校",
    "ruby": "やまもとこうとうがっこう",
    "site": "https://www.osaka-c.ed.jp/yamamoto/",
    "address": "大阪府八尾市山本町北1-1-44",
    "label": "公立",
    "education": "共学校",
    "course": "普通科",
    "tel": "072-999-0552",
    "lat": "34.634326",
    "lng": "135.619174",
    "near": "近鉄大阪線「河内山本」北800ｍ／",
    "course1": "普通科",
    "course2": "",
    "course3": "",
    "course4": "",
    "course5": "",
    "course6": ""
  },
  {
    "id": "247",
    "name": "夕陽丘高等学校",
    "ruby": "ゆうひがおかこうとうがっこう",
    "site": "https://www.osaka-c.ed.jp/yuhigaoka/",
    "address": "大阪府大阪市天王寺区北山町10-10",
    "label": "公立",
    "education": "共学校",
    "course": "普通科、音楽科",
    "tel": "06-6771-0665",
    "lat": "34.659073",
    "lng": "135.522085",
    "near": "JR環状線「桃谷」西500ｍ／大阪メトロ谷町線「四天王寺前夕陽ケ丘」東約900ｍ／近鉄「上本町」南東約1ｋｍ／JR環状線・近鉄・大阪メトロ千日前線「鶴橋」南西約1．2ｋｍ",
    "course1": "普通科",
    "course2": "音楽科",
    "course3": "",
    "course4": "",
    "course5": "",
    "course6": ""
  },
  {
    "id": "248",
    "name": "淀川工科高等学校",
    "ruby": "よどがわこうかこうとうがっこう",
    "site": "https://www.osaka-c.ed.jp/yodogawa-t/",
    "address": "大阪府大阪市旭区太子橋3-1-32",
    "label": "公立",
    "education": "共学校",
    "course": "工業に関する学科【機械系・電気系・メカトロニクス系・工学系】",
    "tel": "06-6952-0001",
    "lat": "34.737213",
    "lng": "135.559916",
    "near": "京阪「守口市」北西500ｍ／大阪メトロ谷町線「守口」西300ｍ",
    "course1": "工業に関する学科【機械系・電気系・メカトロニクス系・工学系】",
    "course2": "",
    "course3": "",
    "course4": "",
    "course5": "",
    "course6": ""
  },
  {
    "id": "249",
    "name": "淀川清流高等学校",
    "ruby": "よどがわせいりゅうこうとうがっこう",
    "site": "https://www.osaka-c.ed.jp/yodogawaseiryu/",
    "address": "大阪府大阪市東淀川区豊里2丁目11-35",
    "label": "公立",
    "education": "共学校",
    "course": "総合学科（エンパワメントスクール）",
    "tel": "06-6328-2331",
    "lat": "34.739743",
    "lng": "135.536606",
    "near": "阪急京都線「上新庄」南東約1000ｍ／大阪メトロ今里筋線「だいどう豊里」南西約1000ｍ",
    "course1": "総合学科（エンパワメントスクール）",
    "course2": "",
    "course3": "",
    "course4": "",
    "course5": "",
    "course6": ""
  },
  {
    "id": "250",
    "name": "淀商業高等学校",
    "ruby": "よどしょうぎょうこうとうがっこう",
    "site": "https://www3.osaka-c.ed.jp/yodo-b",
    "address": "大阪府大阪市西淀川区野里3-3-15",
    "label": "公立",
    "education": "共学校",
    "course": "商業科、福祉ボランティア科",
    "tel": "06-6474-2221",
    "lat": "34.709957",
    "lng": "135.458893",
    "near": "JR東西線「御幣島」南東250ｍ／JR神戸線「塚本」西800ｍ／阪神電鉄「姫島」北東550ｍ",
    "course1": "商業科",
    "course2": "福祉ボランティア科",
    "course3": "",
    "course4": "",
    "course5": "",
    "course6": ""
  },
  {
    "id": "251",
    "name": "緑風冠高等学校",
    "ruby": "りょくふうかんこうとうがっこう",
    "site": "https://www.osaka-c.ed.jp/ryokufukan/",
    "address": "大阪府大東市深野4-12-1",
    "label": "公立",
    "education": "共学校",
    "course": "普通科",
    "tel": "072-871-5473",
    "lat": "34.717307",
    "lng": "135.629115",
    "near": "JR学研都市線「野崎」西1000ｍ",
    "course1": "普通科",
    "course2": "",
    "course3": "",
    "course4": "",
    "course5": "",
    "course6": ""
  },
  {
    "id": "252",
    "name": "りんくう翔南高等学校",
    "ruby": "りんくうしょうなんこうとうがっこう",
    "site": "https://www2.osaka-c.ed.jp/rinkushonan/",
    "address": "大阪府泉南市樽井2-35-54",
    "label": "公立",
    "education": "共学校",
    "course": "普通科",
    "tel": "072-483-4474",
    "lat": "34.368065",
    "lng": "135.264879",
    "near": "南海本線「樽井」南東700ｍ／JR阪和線「和泉砂川」北西1，8ｋｍ",
    "course1": "普通科",
    "course2": "",
    "course3": "",
    "course4": "",
    "course5": "",
    "course6": ""
  },
  {
    "id": "253",
    "name": "和泉総合高等学校",
    "ruby": "いずみそうごうこうとうがっこう",
    "site": "https://www.osaka-c.ed.jp/izumi-t/",
    "address": "大阪府和泉市冨秋町1-14-4",
    "label": "公立",
    "education": "共学校",
    "course": "定時制【総合学科】",
    "tel": "0725-41-1250",
    "lat": "34.504034",
    "lng": "135.431263",
    "near": "JR阪和線「信太山」北西500ｍ／南海本線「北助松」南東1．9ｋｍ",
    "course1": "定時制【総合学科】",
    "course2": "",
    "course3": "",
    "course4": "",
    "course5": "",
    "course6": ""
  },
  {
    "id": "254",
    "name": "茨木工科高等学校",
    "ruby": "いばらきこうかこうとうがっこう",
    "site": "https://www.osaka-c.ed.jp/ibaraki-t/",
    "address": "大阪府茨木市春日5-6-41",
    "label": "公立",
    "education": "共学校",
    "course": "定時制【総合学科】",
    "tel": "072-623-1331",
    "lat": "34.825189",
    "lng": "135.564304",
    "near": "JR「茨木」北1．1ｋｍ・「総持寺」西1．1ｋｍ／阪急「茨木市」北西約1．8ｋｍ／阪急バス「春日」下車東300ｍ「上穂積」下車北東500ｍ",
    "course1": "定時制【総合学科】",
    "course2": "",
    "course3": "",
    "course4": "",
    "course5": "",
    "course6": ""
  },
  {
    "id": "255",
    "name": "今宮工科高等学校",
    "ruby": "いまみやこうかこうとうがっこう",
    "site": "https://www.osaka-c.ed.jp/imamiya-t/",
    "address": "大阪府大阪市西成区出城1-1-6",
    "label": "公立",
    "education": "共学校",
    "course": "定時制【総合学科】",
    "tel": "06-6631-0055",
    "lat": "34.65026",
    "lng": "135.496286",
    "near": "JR環状線・南海本線「新今宮」西400ｍ／大阪メトロ御堂筋線・四つ橋線「大国町」南600ｍ／大阪メトロ堺筋線「動物園前」西600ｍ／大阪メトロ四ツ橋線「花園」北600ｍ",
    "course1": "定時制【総合学科】",
    "course2": "",
    "course3": "",
    "course4": "",
    "course5": "",
    "course6": ""
  },
  {
    "id": "256",
    "name": "大手前高等学校",
    "ruby": "おおてまえこうとうがっこう",
    "site": "https://www.osaka-c.ed.jp/otemae/",
    "address": "大阪府大阪市中央区大手前2-1-11",
    "label": "公立",
    "education": "共学校",
    "course": "定時制【普通科】",
    "tel": "06-6941-0051",
    "lat": "34.687256",
    "lng": "135.519837",
    "near": "大阪メトロ谷町線「天満橋」3番出口東南400ｍ／京阪「天満橋」3番出口東南500ｍ／大阪市バス「大手前」",
    "course1": "定時制【普通科】",
    "course2": "",
    "course3": "",
    "course4": "",
    "course5": "",
    "course6": ""
  },
  {
    "id": "257",
    "name": "春日丘高等学校",
    "ruby": "かすがおかこうとうがっこう",
    "site": "https://www.osaka-c.ed.jp/kasugaoka/",
    "address": "大阪府茨木市春日2丁目1番2号",
    "label": "公立",
    "education": "共学校",
    "course": "定時制【普通科】",
    "tel": "072-623-2062",
    "lat": "34.818483",
    "lng": "135.56093",
    "near": "JR「茨木」北西約300ｍ／阪急京都線「茨木市」西約1400ｍ／大阪モノレール「宇野辺」北約1300ｍ",
    "course1": "定時制【普通科】",
    "course2": "",
    "course3": "",
    "course4": "",
    "course5": "",
    "course6": ""
  },
  {
    "id": "258",
    "name": "岸和田市立産業高等学校",
    "ruby": "きしわだしりつさんぎょうこうとうがっこう",
    "site": "http://www.kishisan-h.ed.jp/",
    "address": "大阪府岸和田市別所町3-33-1",
    "label": "公立",
    "education": "共学校",
    "course": "定時制【商業科】",
    "tel": "072-422-4861",
    "lat": "34.460496",
    "lng": "135.389444",
    "near": "南海本線「岸和田」東1200ｍ／JR阪和線「下松」西800ｍ",
    "course1": "定時制【商業科】",
    "course2": "",
    "course3": "",
    "course4": "",
    "course5": "",
    "course6": ""
  },
  {
    "id": "259",
    "name": "工芸高等学校",
    "ruby": "こうげいこうとうがっこう",
    "site": "https://www3.osaka-c.ed.jp/kogei-t-p",
    "address": "大阪府大阪市阿倍野区文の里1-7-2",
    "label": "公立",
    "education": "共学校",
    "course": "定時制【総合学科】",
    "tel": "06-6623-0150",
    "lat": "34.637883",
    "lng": "135.518871",
    "near": "大阪メトロ谷町線「文の里」北200ｍ／御堂筋線「昭和町」北500ｍ／JR阪和線「美章園」西500ｍ",
    "course1": "定時制【総合学科】",
    "course2": "",
    "course3": "",
    "course4": "",
    "course5": "",
    "course6": ""
  },
  {
    "id": "260",
    "name": "堺工科高等学校",
    "ruby": "さかいこうかこうとうがっこう",
    "site": "https://www.osaka-c.ed.jp/sakai-t/",
    "address": "大阪府堺市堺区大仙中町12-1",
    "label": "公立",
    "education": "共学校",
    "course": "定時制【総合学科】",
    "tel": "072-241-1401",
    "lat": "34.562269",
    "lng": "135.476997",
    "near": "JR阪和線「百舌鳥」西1．2ｋｍ／南海高野線「堺東」南1．6ｋｍ・南海バス「工業高校前」下車",
    "course1": "定時制【総合学科】",
    "course2": "",
    "course3": "",
    "course4": "",
    "course5": "",
    "course6": ""
  },
  {
    "id": "261",
    "name": "堺公立堺高等学校",
    "ruby": "さかいしりつさかいこうとうがっこう",
    "site": "http://www.sakai.ed.jp/sakai-hs/",
    "address": "大阪府堺市堺区向陵東町1-10-1",
    "label": "公立",
    "education": "共学校",
    "course": "定時制【工業に関する学科・マネジメント創造科】",
    "tel": "072-240-0841",
    "lat": "34.563924",
    "lng": "135.496654",
    "near": "JR阪和線・南海高野線「三国ヶ丘」東約500ｍ／南海高野線「百舌鳥八幡」北約500ｍ",
    "course1": "定時制【工業に関する学科・マネジメント創造科】",
    "course2": "",
    "course3": "",
    "course4": "",
    "course5": "",
    "course6": ""
  },
  {
    "id": "262",
    "name": "桜塚高等学校",
    "ruby": "さくらづかこうとうがっこう",
    "site": "https://www.osaka-c.ed.jp/sakurazuka/",
    "address": "大阪府豊中市中桜塚4-1-1",
    "label": "公立",
    "education": "共学校",
    "course": "定時制【普通科】",
    "tel": "06-6853-2244",
    "lat": "34.782382",
    "lng": "135.472353",
    "near": "阪急宝塚線「岡町」東800ｍ",
    "course1": "定時制【普通科】",
    "course2": "",
    "course3": "",
    "course4": "",
    "course5": "",
    "course6": ""
  },
  {
    "id": "263",
    "name": "佐野工科高等学校",
    "ruby": "さのこうかこうとうがっこう",
    "site": "https://www.osaka-c.ed.jp/sano-t/",
    "address": "大阪府泉佐野市高松東1-3-50",
    "label": "公立",
    "education": "共学校",
    "course": "定時制【総合学科】",
    "tel": "072-462-2772",
    "lat": "34.406355",
    "lng": "135.316897",
    "near": "南海本線「泉佐野」南東500ｍ",
    "course1": "定時制【総合学科】",
    "course2": "",
    "course3": "",
    "course4": "",
    "course5": "",
    "course6": ""
  },
  {
    "id": "264",
    "name": "成城高等学校",
    "ruby": "せいじょうこうとうがっこう",
    "site": "https://www.osaka-c.ed.jp/seijo-t/",
    "address": "大阪府大阪市城東区諏訪3-11-41",
    "label": "公立",
    "education": "共学校",
    "course": "定時制【総合学科】",
    "tel": "06-6962-2801",
    "lat": "34.682158",
    "lng": "135.562147",
    "near": "大阪メトロ中央線「深江橋」北東約500ｍ／JR学研都市線・おおさか東線「放出」南約1200ｍ／JRおおさか東線「高井田中央」西約1300ｍ",
    "course1": "定時制【総合学科】",
    "course2": "",
    "course3": "",
    "course4": "",
    "course5": "",
    "course6": ""
  },
  {
    "id": "265",
    "name": "第二工芸高等学校",
    "ruby": "だいにこうげいこうとうがっこう",
    "site": "https://www3.osaka-c.ed.jp/kogei-t-p",
    "address": "大阪府大阪市阿倍野区文の里1-7-2",
    "label": "公立",
    "education": "共学校",
    "course": "定時制【インテリア科・クラフト科・デザイン科】",
    "tel": "06-6623-0150",
    "lat": "34.637883",
    "lng": "135.518871",
    "near": "大阪メトロ谷町線「文の里」北200ｍ／御堂筋線「昭和町」北500ｍ／JR阪和線「美章園」西500ｍ",
    "course1": "定時制【インテリア科・クラフト科・デザイン科】",
    "course2": "",
    "course3": "",
    "course4": "",
    "course5": "",
    "course6": ""
  },
  {
    "id": "266",
    "name": "西野田工科高等学校",
    "ruby": "にしのだこうかこうとうがっこう",
    "site": "https://www.osaka-c.ed.jp/nishinoda-t/",
    "address": "大阪府大阪市福島区大開2-17-62",
    "label": "公立",
    "education": "共学校",
    "course": "定時制【総合学科】",
    "tel": "06-6461-0023",
    "lat": "34.693644",
    "lng": "135.469117",
    "near": "阪神電鉄本線「野田」西300ｍ／大阪メトロ千日前線「野田阪神」西300ｍ／JR東西線「海老江」西300ｍ",
    "course1": "定時制【総合学科】",
    "course2": "",
    "course3": "",
    "course4": "",
    "course5": "",
    "course6": ""
  },
  {
    "id": "267",
    "name": "寝屋川高等学校",
    "ruby": "ねやがわこうとうがっこう",
    "site": "https://www.osaka-c.ed.jp/neyagawa/",
    "address": "大阪府寝屋川市本町15-64",
    "label": "公立",
    "education": "共学校",
    "course": "定時制【普通科】",
    "tel": "072-821-0546",
    "lat": "34.765097",
    "lng": "135.625773",
    "near": "京阪「寝屋川市」東500ｍ",
    "course1": "定時制【普通科】",
    "course2": "",
    "course3": "",
    "course4": "",
    "course5": "",
    "course6": ""
  },
  {
    "id": "268",
    "name": "藤井寺工科高等学校",
    "ruby": "ふじいでらこうかこうとうがっこう",
    "site": "https://www.osaka-c.ed.jp/fujiidera-t/",
    "address": "大阪府藤井寺市御舟町10-1",
    "label": "公立",
    "education": "共学校",
    "course": "定時制【総合学科】",
    "tel": "072-955-0281",
    "lat": "34.573118",
    "lng": "135.601375",
    "near": "近鉄南大阪線「藤井寺」東500ｍ",
    "course1": "定時制【総合学科】",
    "course2": "",
    "course3": "",
    "course4": "",
    "course5": "",
    "course6": ""
  },
  {
    "id": "269",
    "name": "布施高等学校",
    "ruby": "ふせこうとうがっこう",
    "site": "https://www.osaka-c.ed.jp/fuse/",
    "address": "大阪府東大阪市下小阪3-14-21",
    "label": "公立",
    "education": "共学校",
    "course": "定時制【普通科】",
    "tel": "06-6723-7500",
    "lat": "34.661893",
    "lng": "135.587245",
    "near": "近鉄奈良線「八戸ノ里」約200ｍ",
    "course1": "定時制【普通科】",
    "course2": "",
    "course3": "",
    "course4": "",
    "course5": "",
    "course6": ""
  },
  {
    "id": "270",
    "name": "三国丘高等学校",
    "ruby": "みくにがおかこうとうがっこう",
    "site": "https://www.osaka-c.ed.jp/mikunigaoka/",
    "address": "大阪府堺市堺区南三国ｹ丘町2-2-36",
    "label": "公立",
    "education": "共学校",
    "course": "定時制【普通科】",
    "tel": "072-233-6005",
    "lat": "34.573351",
    "lng": "135.489273",
    "near": "南海高野線「堺東」東300ｍ／南海本線「天下茶屋」6分／南海高野線「難波」12分・「河内長野」15分／大阪メトロ堺筋線「南森町」25分",
    "course1": "定時制【普通科】",
    "course2": "",
    "course3": "",
    "course4": "",
    "course5": "",
    "course6": ""
  },
  {
    "id": "271",
    "name": "都島工業高等学校",
    "ruby": "みやこじまこうぎょうこうとうがっこう",
    "site": "https://www3.osaka-c.ed.jp/miyakojima-t-p",
    "address": "大阪府大阪市都島区善源寺町1-5-64",
    "label": "公立",
    "education": "共学校",
    "course": "定時制【総合学科】",
    "tel": "06-6921-4236",
    "lat": "34.709766",
    "lng": "135.52515",
    "near": "大阪メトロ谷町線「都島」西50ｍ／JR環状線「桜ノ宮」北東約1ｋｍ",
    "course1": "定時制【総合学科】",
    "course2": "",
    "course3": "",
    "course4": "",
    "course5": "",
    "course6": ""
  },
  {
    "id": "272",
    "name": "都島第二工業高等学校",
    "ruby": "みやこじまだいにこうぎょうこうとうがっこう",
    "site": "https://www3.osaka-c.ed.jp/miyakojima-t-p",
    "address": "大阪府大阪市都島区善源寺町1-5-64",
    "label": "公立",
    "education": "共学校",
    "course": "定時制【普通科・機械科・電気科・建築科・都市工学科】",
    "tel": "06-6921-4236",
    "lat": "34.709766",
    "lng": "135.52515",
    "near": "大阪メトロ谷町線「都島」西50ｍ／JR環状線「桜ノ宮」北東約1ｋｍ",
    "course1": "定時制【普通科・機械科・電気科・建築科・都市工学科】",
    "course2": "",
    "course3": "",
    "course4": "",
    "course5": "",
    "course6": ""
  },
  {
    "id": "273",
    "name": "桃谷高等学校",
    "ruby": "ももだにこうとうがっこう",
    "site": "https://www.osaka-c.ed.jp/momodani/",
    "address": "大阪府大阪市生野区勝山南3-1-4",
    "label": "公立",
    "education": "共学校",
    "course": "多部制単位制３部【普通科】",
    "tel": "06-6712-0371",
    "lat": "34.653331",
    "lng": "135.533332",
    "near": "JR環状線「桃谷」南東800ｍ",
    "course1": "多部制単位制３部【普通科】",
    "course2": "",
    "course3": "",
    "course4": "",
    "course5": "",
    "course6": ""
  },
  {
    "id": "274",
    "name": "桃谷高等学校",
    "ruby": "ももだにこうとうがっこう",
    "site": "https://www.osaka-c.ed.jp/momodani/",
    "address": "大阪府大阪市生野区勝山南3-1-4",
    "label": "公立",
    "education": "共学校",
    "course": "通信制",
    "tel": "06-6712-0371",
    "lat": "34.653331",
    "lng": "135.533332",
    "near": "JR環状線「桃谷」南東800ｍ",
    "course1": "通信制",
    "course2": "",
    "course3": "",
    "course4": "",
    "course5": "",
    "course6": ""
  },
  {
    "id": "275",
    "name": "生野支援学校",
    "ruby": "いくのしえんがっこう",
    "site": "https://www.osaka-c.ed.jp/ikuno-s/",
    "address": "大阪府大阪市生野区巽東4-2-47",
    "label": "公立",
    "education": "共学校",
    "course": "支援学校【知的障がい】",
    "tel": "06-6758-3784",
    "lat": "34.648712",
    "lng": "135.559372",
    "near": "大阪メトロ千日前線「北巽」南750ｍ",
    "course1": "支援学校【知的障がい】",
    "course2": "",
    "course3": "",
    "course4": "",
    "course5": "",
    "course6": ""
  },
  {
    "id": "276",
    "name": "生野聴覚支援学校",
    "ruby": "いくのちょうかくしえんがっこう",
    "site": "https://www.osaka-c.ed.jp/ikuno-r/",
    "address": "大阪府大阪市生野区桃谷1-2-1",
    "label": "公立",
    "education": "共学校",
    "course": "支援学校【聴覚障がい】",
    "tel": "06-6717-3366",
    "lat": "34.66167",
    "lng": "135.530076",
    "near": "大阪メトロ千日前線／近鉄大阪線／JR環状線「鶴橋」南約450ｍ／JR環状線「桃谷」北500ｍ",
    "course1": "支援学校【聴覚障がい】",
    "course2": "",
    "course3": "",
    "course4": "",
    "course5": "",
    "course6": ""
  },
  {
    "id": "277",
    "name": "和泉支援学校",
    "ruby": "いずみしえんがっこう",
    "site": "https://www.osaka-c.ed.jp/izumi-y/",
    "address": "大阪府和泉市池上町2-4-6",
    "label": "公立",
    "education": "共学校",
    "course": "支援学校【知的障がい】",
    "tel": "0725-45-9555",
    "lat": "34.49632",
    "lng": "135.427687",
    "near": "JR阪和線「信太山」南西600ｍ",
    "course1": "支援学校【知的障がい】",
    "course2": "",
    "course3": "",
    "course4": "",
    "course5": "",
    "course6": ""
  },
  {
    "id": "278",
    "name": "茨木支援学校",
    "ruby": "いばらきしえんがっこう",
    "site": "https://www.osaka-c.ed.jp/ibaraki-y/",
    "address": "大阪府茨木市西福井4-5-5",
    "label": "公立",
    "education": "共学校",
    "course": "支援学校【肢体不自由・知肢併置】",
    "tel": "072-643-6951",
    "lat": "34.849455",
    "lng": "135.548331",
    "near": "JR「茨木」・阪急京都線「茨木市」から阪急バス「福井宮の前」下車徒歩5分",
    "course1": "支援学校【肢体不自由・知肢併置】",
    "course2": "",
    "course3": "",
    "course4": "",
    "course5": "",
    "course6": ""
  },
  {
    "id": "279",
    "name": "大阪北視覚支援学校",
    "ruby": "おおさかきたしかくしえんがっこう",
    "site": "https://www.osaka-c.ed.jp/osakakita-s-s/",
    "address": "大阪府大阪市東淀川区豊里7-5-26",
    "label": "公立",
    "education": "共学校",
    "course": "支援学校【視覚障がい】",
    "tel": "06-6328-7000",
    "lat": "34.742897",
    "lng": "135.542112",
    "near": "阪急京都線「上新庄」から大阪シティバス「大桐1丁目」下車西徒歩3分／JR「吹田」から京阪バス「大桐1丁目」下車徒歩3分／大阪メトロ今里筋線「だいどう豊里」西徒歩2分",
    "course1": "支援学校【視覚障がい】",
    "course2": "",
    "course3": "",
    "course4": "",
    "course5": "",
    "course6": ""
  },
  {
    "id": "280",
    "name": "交野支援学校",
    "ruby": "かたのしえんがっこう",
    "site": "https://www.osaka-c.ed.jp/katano-y/",
    "address": "大阪府交野市寺4-831",
    "label": "公立",
    "education": "共学校",
    "course": "支援学校【肢体不自由】",
    "tel": "072-893-2445",
    "lat": "34.784367",
    "lng": "135.694369",
    "near": "京阪交野線「河内森」北東1．7ｋｍ／JR学研都市線「河内磐船」北東1．5ｋｎ",
    "course1": "支援学校【肢体不自由】",
    "course2": "",
    "course3": "",
    "course4": "",
    "course5": "",
    "course6": ""
  },
  {
    "id": "281",
    "name": "交野支援学校四條畷校",
    "ruby": "かたのしえんがっこうしじょうなわてこう",
    "site": "https://www.osaka-c.ed.jp/katano-sb/",
    "address": "大阪府四條畷市砂3-13-16",
    "label": "公立",
    "education": "共学校",
    "course": "支援学校【知的障がい】",
    "tel": "072-879-8315",
    "lat": "34.747839",
    "lng": "135.634133",
    "near": "JR学研都市線「忍ヶ丘」西約1ｋｍ",
    "course1": "支援学校【知的障がい】",
    "course2": "",
    "course3": "",
    "course4": "",
    "course5": "",
    "course6": ""
  },
  {
    "id": "282",
    "name": "岸和田支援学校",
    "ruby": "きしわだしえんがっこう",
    "site": "https://www.osaka-c.ed.jp/kishiwada-y/",
    "address": "大阪府岸和田市土生町5-9-1",
    "label": "公立",
    "education": "共学校",
    "course": "支援学校【肢体不自由】",
    "tel": "072-426-3033",
    "lat": "34.445455",
    "lng": "135.382882",
    "near": "JR阪和線「東岸和田」南西600ｍ",
    "course1": "支援学校【肢体不自由】",
    "course2": "",
    "course3": "",
    "course4": "",
    "course5": "",
    "course6": ""
  },
  {
    "id": "283",
    "name": "光陽支援学校",
    "ruby": "こうようしえんがっこう",
    "site": "https://www.osaka-c.ed.jp/koyo-s/",
    "address": "大阪府大阪市旭区新森6-8-21",
    "label": "公立",
    "education": "共学校",
    "course": "支援学校【肢体不自由・病弱部門併置】",
    "tel": "06-6953-4022",
    "lat": "34.718012",
    "lng": "135.563695",
    "near": "京阪本線「森小路」東約1．1ｋｍ／大阪メトロ今里筋線「清水」南東約600ｍ",
    "course1": "支援学校【肢体不自由・病弱部門併置】",
    "course2": "",
    "course3": "",
    "course4": "",
    "course5": "",
    "course6": ""
  },
  {
    "id": "284",
    "name": "堺支援学校",
    "ruby": "さかいしえんがっこう",
    "site": "https://www.osaka-c.ed.jp/sakai-y/",
    "address": "大阪府堺市堺区東上野芝町1-71",
    "label": "公立",
    "education": "共学校",
    "course": "支援学校【肢体不自由・知肢併置】",
    "tel": "072-241-0288",
    "lat": "34.551247",
    "lng": "135.476628",
    "near": "JR阪和線「百舌鳥」約600ｍ・JR「上野芝」約700ｍ",
    "course1": "支援学校【肢体不自由・知肢併置】",
    "course2": "",
    "course3": "",
    "course4": "",
    "course5": "",
    "course6": ""
  },
  {
    "id": "285",
    "name": "堺支援学校大手前分校",
    "ruby": "さかいしえんがっこうおおてぜんぶんこう",
    "site": "https://www.osaka-c.ed.jp/sakai-yb/",
    "address": "大阪府大阪市天王寺区筆ヶ崎町5-30",
    "label": "公立",
    "education": "共学校",
    "course": "支援学校【肢体不自由】",
    "tel": "06-6776-5306",
    "lat": "34.665143",
    "lng": "135.525272",
    "near": "大阪メトロ千日前線／近鉄大阪線／JR環状線「鶴橋」西約500ｍ",
    "course1": "支援学校【肢体不自由】",
    "course2": "",
    "course3": "",
    "course4": "",
    "course5": "",
    "course6": ""
  },
  {
    "id": "286",
    "name": "堺聴覚支援学校",
    "ruby": "さかいちょうかくしえんがっこう",
    "site": "https://www.osaka-c.ed.jp/sakai-r/",
    "address": "大阪府堺市北区百舌鳥陵南町1",
    "label": "公立",
    "education": "共学校",
    "course": "支援学校【聴覚障がい】",
    "tel": "072-257-5471",
    "lat": "34.547496",
    "lng": "135.487665",
    "near": "JR阪和線「上野芝」南東約1000ｍ",
    "course1": "支援学校【聴覚障がい】",
    "course2": "",
    "course3": "",
    "course4": "",
    "course5": "",
    "course6": ""
  },
  {
    "id": "287",
    "name": "佐野支援学校",
    "ruby": "さのしえんがっこう",
    "site": "https://www.osaka-c.ed.jp/sano-y/",
    "address": "大阪府泉佐野市日根野375",
    "label": "公立",
    "education": "共学校",
    "course": "支援学校【知的障がい】",
    "tel": "072-467-2252",
    "lat": "34.38219",
    "lng": "135.346278",
    "near": "JR阪和線「日根野」南東約2ｋｍ／南海線「泉佐野」から南海ウイングバスバス「久の木」下車東900ｍ",
    "course1": "支援学校【知的障がい】",
    "course2": "",
    "course3": "",
    "course4": "",
    "course5": "",
    "course6": ""
  },
  {
    "id": "288",
    "name": "思斉支援学校",
    "ruby": "しせいしえんがっこう",
    "site": "https://www.osaka-c.ed.jp/shisei-s/",
    "address": "大阪府大阪市旭区大宮5-11-7",
    "label": "公立",
    "education": "共学校",
    "course": "支援学校【知的障がい】",
    "tel": "06-6951-4063",
    "lat": "34.730593",
    "lng": "135.548451",
    "near": "大阪メトロ谷町線「太子橋今市」北西700ｍ",
    "course1": "支援学校【知的障がい】",
    "course2": "",
    "course3": "",
    "course4": "",
    "course5": "",
    "course6": ""
  },
  {
    "id": "289",
    "name": "吹田支援学校",
    "ruby": "すいたしえんがっこう",
    "site": "https://www.osaka-c.ed.jp/suita-y/",
    "address": "大阪府吹田市芳野町13-120",
    "label": "公立",
    "education": "共学校",
    "course": "支援学校【知的障がい】",
    "tel": "06-6389-9520",
    "lat": "34.756094",
    "lng": "135.488592",
    "near": "大阪メトロ御堂筋線「江坂」西1ｋｍ／阪急バス「芳野町」下車南100ｍ",
    "course1": "支援学校【知的障がい】",
    "course2": "",
    "course3": "",
    "course4": "",
    "course5": "",
    "course6": ""
  },
  {
    "id": "290",
    "name": "すながわ高等支援学校",
    "ruby": "すながわこうとうしえんがっこう",
    "site": "https://www.osaka-c.ed.jp/sunagawa-ks/",
    "address": "大阪府泉南市信達牧野40-1",
    "label": "公立",
    "education": "共学校",
    "course": "支援学校【知的障がい（高等支援）】",
    "tel": "072-485-3810",
    "lat": "34.355766",
    "lng": "135.280984",
    "near": "JR阪和線「和泉砂川」南700ｍ／南海本線「樽井」からコミュニティバス「府立支援学校前」下車すぐ／和歌山バス「樽井駅前」から乗車「砂川駅前」にて下車南約700ｍ",
    "course1": "支援学校【知的障がい（高等支援）】",
    "course2": "",
    "course3": "",
    "course4": "",
    "course5": "",
    "course6": ""
  },
  {
    "id": "291",
    "name": "住之江支援学校",
    "ruby": "すみのえしえんがっこう",
    "site": "https://www.osaka-c.ed.jp/suminoe-s/",
    "address": "大阪府大阪市住之江区緑木1-4-167",
    "label": "公立",
    "education": "共学校",
    "course": "支援学校【知的障がい】",
    "tel": "06-6683-2622",
    "lat": "34.61991",
    "lng": "135.474025",
    "near": "大阪メトロ四つ橋線「北加賀屋」西約330ｍ",
    "course1": "支援学校【知的障がい】",
    "course2": "",
    "course3": "",
    "course4": "",
    "course5": "",
    "course6": ""
  },
  {
    "id": "292",
    "name": "摂津支援学校",
    "ruby": "せっつしえんがっこう",
    "site": "https://www.osaka-c.ed.jp/settsu-s/",
    "address": "大阪府摂津市鳥飼上1-1-15",
    "label": "公立",
    "education": "共学校",
    "course": "支援学校【知的障がい】",
    "tel": "072-654-8911",
    "lat": "34.785113",
    "lng": "135.600554",
    "near": "阪急バス「上鳥飼」下車北東150ｍ／京阪バス「上鳥飼北」下車南東500ｍ／高槻市バス「柱本」下車南西1200ｍ",
    "course1": "支援学校【知的障がい】",
    "course2": "",
    "course3": "",
    "course4": "",
    "course5": "",
    "course6": ""
  },
  {
    "id": "293",
    "name": "泉南支援学校",
    "ruby": "せんなんしえんがっこう",
    "site": "https://www.osaka-c.ed.jp/sennan-s/",
    "address": "大阪府泉南市信達牧野40-1",
    "label": "公立",
    "education": "共学校",
    "course": "支援学校【知的障がい】",
    "tel": "072-485-3801",
    "lat": "34.355766",
    "lng": "135.280984",
    "near": "JR阪和線「和泉砂川」南600ｍ／南海線樽井駅下車・コミュニティバス「府立支援学校前」下車すぐ",
    "course1": "支援学校【知的障がい】",
    "course2": "",
    "course3": "",
    "course4": "",
    "course5": "",
    "course6": ""
  },
  {
    "id": "294",
    "name": "泉北高等支援学校",
    "ruby": "せんほくこうとうしえんがっこう",
    "site": "https://www.osaka-c.ed.jp/semboku-y/",
    "address": "大阪府堺市南区原山台2-6",
    "label": "公立",
    "education": "共学校",
    "course": "支援学校【知的障がい】",
    "tel": "072-298-2111",
    "lat": "34.482674",
    "lng": "135.489307",
    "near": "泉北高速鉄道「栂・美木多」南600ｍ",
    "course1": "支援学校【知的障がい】",
    "course2": "",
    "course3": "",
    "course4": "",
    "course5": "",
    "course6": ""
  },
  {
    "id": "295",
    "name": "だいせん聴覚高等支援学校",
    "ruby": "だいせんちょうかくこうとうしえんがっこう",
    "site": "https://www.osaka-c.ed.jp/daisen-hr/",
    "address": "大阪府堺市堺区大仙町1-1",
    "label": "公立",
    "education": "共学校",
    "course": "支援学校【聴覚障がい】",
    "tel": "072-232-6761",
    "lat": "34.565938",
    "lng": "135.482978",
    "near": "JR阪和線・南海高野線「三国ヶ丘駅」西1200ｍ",
    "course1": "支援学校【聴覚障がい】",
    "course2": "",
    "course3": "",
    "course4": "",
    "course5": "",
    "course6": ""
  },
  {
    "id": "296",
    "name": "大阪南視覚支援学校",
    "ruby": "だいはんなんしかくしえんがっこう",
    "site": "https://www.osaka-c.ed.jp/mou/",
    "address": "大阪府大阪市住吉区山之内1-10-12",
    "label": "公立",
    "education": "共学校",
    "course": "支援学校【視覚障がい】",
    "tel": "06-6693-3471",
    "lat": "34.600864",
    "lng": "135.503057",
    "near": "JR阪和線「我孫子町」南西400ｍ／南海高野線「我孫子前」東700ｍ",
    "course1": "支援学校【視覚障がい】",
    "course2": "",
    "course3": "",
    "course4": "",
    "course5": "",
    "course6": ""
  },
  {
    "id": "297",
    "name": "高槻支援学校",
    "ruby": "たかつきしえんがっこう",
    "site": "https://www2.osaka-c.ed.jp/takatsuki-y/",
    "address": "大阪府高槻市富田町1-33-17",
    "label": "公立",
    "education": "共学校",
    "course": "支援学校【知的障がい】",
    "tel": "072-696-2836",
    "lat": "34.834356",
    "lng": "135.588941",
    "near": "JR「摂津富田」南西600ｍ／阪急京都線「富田」西400ｍ",
    "course1": "支援学校【知的障がい】",
    "course2": "",
    "course3": "",
    "course4": "",
    "course5": "",
    "course6": ""
  },
  {
    "id": "298",
    "name": "たまがわ高等支援学校",
    "ruby": "たまがわこうとうしえんがっこう",
    "site": "https://www2.osaka-c.ed.jp/tamagawa-ks/",
    "address": "大阪府東大阪市稲葉2-3-25",
    "label": "公立",
    "education": "共学校",
    "course": "支援学校【知的障がい（高等支援）】",
    "tel": "072-961-4730",
    "lat": "34.670221",
    "lng": "135.618168",
    "near": "近鉄奈良線「河内花園」北1ｋｍ／近鉄けいはんな線「吉田」南1．5ｋｍ／近鉄バス萱島線「菱江」下車東700ｍ／・吉田線「稲葉町二丁目」下車東150ｍ",
    "course1": "支援学校【知的障がい（高等支援）】",
    "course2": "",
    "course3": "",
    "course4": "",
    "course5": "",
    "course6": ""
  },
  {
    "id": "299",
    "name": "中央聴覚支援学校",
    "ruby": "ちゅうおうちょうかくしえんがっこう",
    "site": "https://www.osaka-c.ed.jp/osakachuo-c-s/",
    "address": "大阪府大阪市中央区上町1-19-31",
    "label": "公立",
    "education": "共学校",
    "course": "支援学校【聴覚障がい】",
    "tel": "06-6761-1419",
    "lat": "34.677739",
    "lng": "135.52325",
    "near": "大阪メトロ谷町線「谷町4丁目」南東約600ｍ・「谷町6丁目」北東約600ｍ",
    "course1": "支援学校【聴覚障がい】",
    "course2": "",
    "course3": "",
    "course4": "",
    "course5": "",
    "course6": ""
  },
  {
    "id": "300",
    "name": "刀根山支援学校",
    "ruby": "とねやましえんがっこう",
    "site": "https://www.osaka-c.ed.jp/toneyama-y/",
    "address": "大阪府豊中市刀根山5-1-1",
    "label": "公立",
    "education": "共学校",
    "course": "支援学校【病弱】",
    "tel": "06-6853-0200",
    "lat": "34.793176",
    "lng": "135.45126",
    "near": "阪急宝塚線・大阪モノレール「蛍池」南東徒歩12分",
    "course1": "支援学校【病弱】",
    "course2": "",
    "course3": "",
    "course4": "",
    "course5": "",
    "course6": ""
  },
  {
    "id": "301",
    "name": "豊中支援学校",
    "ruby": "とよなかしえんがっこう",
    "site": "https://www.osaka-c.ed.jp/toyonaka-y/",
    "address": "大阪府豊中市北緑丘2-7-1",
    "label": "公立",
    "education": "共学校",
    "course": "支援学校【知的障がい】",
    "tel": "06-6840-1801",
    "lat": "34.818616",
    "lng": "135.481119",
    "near": "北大阪急行・大阪モノレール「千里中央」・阪急宝塚線「豊中」から阪急バス「北緑丘小学校前」下車北300ｍ・「稲」下車南南500ｍ",
    "course1": "支援学校【知的障がい】",
    "course2": "",
    "course3": "",
    "course4": "",
    "course5": "",
    "course6": ""
  },
  {
    "id": "302",
    "name": "とりかい高等支援学校",
    "ruby": "とりかいこうとうしえんがっこう",
    "site": "https://www.osaka-c.ed.jp/torikai-ks/",
    "address": "大阪府摂津市鳥飼上1-1-15",
    "label": "公立",
    "education": "共学校",
    "course": "支援学校【知的障がい（高等支援）】",
    "tel": "072-654-9235",
    "lat": "34.785113",
    "lng": "135.600554",
    "near": "阪急バス「上鳥飼」下車北東150ｍ／京阪バス「上鳥飼北」下車南東500ｍ／高槻市バス「柱本」下車南西1200ｍ",
    "course1": "支援学校【知的障がい（高等支援）】",
    "course2": "",
    "course3": "",
    "course4": "",
    "course5": "",
    "course6": ""
  },
  {
    "id": "303",
    "name": "富田林支援学校",
    "ruby": "とんだばやししえんがっこう",
    "site": "https://www.osaka-c.ed.jp/tondabayashi-y/",
    "address": "大阪府富田林市甘南備216",
    "label": "公立",
    "education": "共学校",
    "course": "支援学校【知的障がい】",
    "tel": "0721-34-1675",
    "lat": "34.454264",
    "lng": "135.596647",
    "near": "近鉄長野線「富田林」から金剛バス「府立こんごう福祉センター前」下車200ｍ・「府立こんごう福祉センター東口」下車700ｍ",
    "course1": "支援学校【知的障がい】",
    "course2": "",
    "course3": "",
    "course4": "",
    "course5": "",
    "course6": ""
  },
  {
    "id": "304",
    "name": "中津支援学校",
    "ruby": "なかつしえんがっこう",
    "site": "https://www.osaka-c.ed.jp/nakatsu-y/",
    "address": "大阪府大阪市北区中津2-2-22",
    "label": "公立",
    "education": "共学校",
    "course": "支援学校【肢体不自由】",
    "tel": "06-6372-8256",
    "lat": "34.713274",
    "lng": "135.497019",
    "near": "阪急宝塚線・神戸線「中津」北東500ｍ／大阪メトロ御堂筋線「中津」北200ｍ",
    "course1": "支援学校【肢体不自由】",
    "course2": "",
    "course3": "",
    "course4": "",
    "course5": "",
    "course6": ""
  },
  {
    "id": "305",
    "name": "なにわ高等支援学校",
    "ruby": "なにわこうとうしえんがっこう",
    "site": "https://www2.osaka-c.ed.jp/naniwa-ks/",
    "address": "大阪府大阪市浪速区木津川2-3-30",
    "label": "公立",
    "education": "共学校",
    "course": "支援学校【知的障がい（高等支援）】",
    "tel": "06-6561-7361",
    "lat": "34.659094",
    "lng": "135.483921",
    "near": "JR環状線「芦原町駅」徒歩7分",
    "course1": "支援学校【知的障がい（高等支援）】",
    "course2": "",
    "course3": "",
    "course4": "",
    "course5": "",
    "course6": ""
  },
  {
    "id": "306",
    "name": "難波支援学校",
    "ruby": "なんばしえんがっこう",
    "site": "https://www.osaka-c.ed.jp/namba-s/",
    "address": "大阪府大阪市浪速区木津川2-3-30",
    "label": "公立",
    "education": "共学校",
    "course": "支援学校【知的障がい】",
    "tel": "06-6562-2251",
    "lat": "34.659094",
    "lng": "135.483921",
    "near": "JR環状線「芦原橋」西600ｍ／南海汐見橋線「芦原橋」西200ｍ",
    "course1": "支援学校【知的障がい】",
    "course2": "",
    "course3": "",
    "course4": "",
    "course5": "",
    "course6": ""
  },
  {
    "id": "307",
    "name": "西浦支援学校",
    "ruby": "にしうらしえんがっこう",
    "site": "https://www.osaka-c.ed.jp/nishiura-s/",
    "address": "大阪府羽曳野市西浦2-1797",
    "label": "公立",
    "education": "共学校",
    "course": "支援学校【知的障がい】",
    "tel": "072-957-0617",
    "lat": "34.544472",
    "lng": "135.605694",
    "near": "近鉄南大阪線「古市駅」南1．2㎞",
    "course1": "支援学校【知的障がい】",
    "course2": "",
    "course3": "",
    "course4": "",
    "course5": "",
    "course6": ""
  },
  {
    "id": "308",
    "name": "西淀川支援学校",
    "ruby": "にしよどがわしえんがっこう",
    "site": "https://www.osaka-c.ed.jp/nishiyodogawa-s/",
    "address": "大阪府大阪市西淀川区大和田2-5-77",
    "label": "公立",
    "education": "共学校",
    "course": "支援学校【肢体不自由】",
    "tel": "06-6475-2560",
    "lat": "34.703842",
    "lng": "135.441798",
    "near": "阪神なんば線「福」北500ｍ",
    "course1": "支援学校【肢体不自由】",
    "course2": "",
    "course3": "",
    "course4": "",
    "course5": "",
    "course6": ""
  },
  {
    "id": "309",
    "name": "寝屋川支援学校",
    "ruby": "ねやがわしえんがっこう",
    "site": "https://www.osaka-c.ed.jp/neyagawa-y/",
    "address": "大阪府寝屋川市寝屋川公園2100",
    "label": "公立",
    "education": "共学校",
    "course": "支援学校【知的障がい】",
    "tel": "072-824-1024",
    "lat": "34.763413",
    "lng": "135.655226",
    "near": "JR学研都市線「東寝屋川」北東約0．9ｋｍ・「星田」西約1．2ｋｍ／京阪電鉄「寝屋川市」から京阪バス「大谷町」下車西500ｍ",
    "course1": "支援学校【知的障がい】",
    "course2": "",
    "course3": "",
    "course4": "",
    "course5": "",
    "course6": ""
  },
  {
    "id": "310",
    "name": "羽曳野支援学校",
    "ruby": "はびきのしえんがっこう",
    "site": "https://www.osaka-c.ed.jp/habikino-y/",
    "address": "大阪府羽曳野市はびきの3-7-1",
    "label": "公立",
    "education": "共学校",
    "course": "支援学校【病弱】",
    "tel": "072-958-5000",
    "lat": "34.547948",
    "lng": "135.589102",
    "near": "近鉄南大阪線「藤井寺」または「古市」下車　近鉄バスに乗車10分「府立医療センター」下車",
    "course1": "支援学校【病弱】",
    "course2": "",
    "course3": "",
    "course4": "",
    "course5": "",
    "course6": ""
  },
  {
    "id": "311",
    "name": "東大阪支援学校",
    "ruby": "ひがしおおさかしえんがっこう",
    "site": "https://www2.osaka-c.ed.jp/higashiosaka-y/",
    "address": "大阪府東大阪市中石切町3-11-27",
    "label": "公立",
    "education": "共学校",
    "course": "支援学校【肢体不自由・知肢併置】",
    "tel": "072-984-8141",
    "lat": "34.685119",
    "lng": "135.656016",
    "near": "近鉄けいはんな線「新石切」北北西0．9ｋｍ／近鉄バス「芝」下車西南西0．7ｋｍ",
    "course1": "支援学校【肢体不自由・知肢併置】",
    "course2": "",
    "course3": "",
    "course4": "",
    "course5": "",
    "course6": ""
  },
  {
    "id": "312",
    "name": "東住吉支援学校",
    "ruby": "ひがしすみよししえんがっこう",
    "site": "https://www.osaka-c.ed.jp/higashisumiyoshi-s/",
    "address": "大阪府大阪市東住吉区矢田5-1-22",
    "label": "公立",
    "education": "共学校",
    "course": "支援学校【肢体不自由・知的障がい部門併置】",
    "tel": "06-6608-9100",
    "lat": "34.601969",
    "lng": "135.52763",
    "near": "近鉄南大阪線「矢田」南西約500ｍ",
    "course1": "支援学校【肢体不自由・知的障がい部門併置】",
    "course2": "",
    "course3": "",
    "course4": "",
    "course5": "",
    "course6": ""
  },
  {
    "id": "313",
    "name": "東淀川支援学校",
    "ruby": "ひがしよどがわしえんがっこう",
    "site": "https://www.osaka-c.ed.jp/higashiyodogawa-s/",
    "address": "大阪府大阪市東淀川区東中島3-5-22",
    "label": "公立",
    "education": "共学校",
    "course": "支援学校【知的障がい】",
    "tel": "06-6325-9011",
    "lat": "34.731067",
    "lng": "135.50505",
    "near": "JR線「新大阪」東口より徒歩10分／大阪メトロ御堂筋線「新大阪」徒歩10分／阪急「崇禅寺」徒歩8分",
    "course1": "支援学校【知的障がい】",
    "course2": "",
    "course3": "",
    "course4": "",
    "course5": "",
    "course6": ""
  },
  {
    "id": "314",
    "name": "枚方支援学校",
    "ruby": "ひらかたしえんがっこう",
    "site": "https://www.osaka-c.ed.jp/hirakata-s/",
    "address": "大阪府枚方市村野西町60-1",
    "label": "公立",
    "education": "共学校",
    "course": "支援学校【知的障がい】",
    "tel": "072-805-2731",
    "lat": "34.799731",
    "lng": "135.664928",
    "near": "京阪交野線「村野」南約250ｍ",
    "course1": "支援学校【知的障がい】",
    "course2": "",
    "course3": "",
    "course4": "",
    "course5": "",
    "course6": ""
  },
  {
    "id": "315",
    "name": "平野支援学校",
    "ruby": "ひらのしえんがっこう",
    "site": "https://www.osaka-c.ed.jp/hirano-s/",
    "address": "大阪府大阪市平野区長吉川辺3-4-115",
    "label": "公立",
    "education": "共学校",
    "course": "支援学校【肢体不自由】",
    "tel": "06-6707-6731",
    "lat": "34.598861",
    "lng": "135.576796",
    "near": "大阪メトロ谷町線「長原」南南東600ｍ／大阪メトロ谷町線「八尾南」北西約600ｍ",
    "course1": "支援学校【肢体不自由】",
    "course2": "",
    "course3": "",
    "course4": "",
    "course5": "",
    "course6": ""
  },
  {
    "id": "316",
    "name": "藤井寺支援学校",
    "ruby": "ふじいでらしえんがっこう",
    "site": "https://www.osaka-c.ed.jp/fujiidera-y/",
    "address": "大阪府藤井寺市川北2-5-23",
    "label": "公立",
    "education": "共学校",
    "course": "支援学校【肢体不自由】",
    "tel": "072-973-1313",
    "lat": "34.586743",
    "lng": "135.61289",
    "near": "JR大和路線「柏原」西約1ｋｍ／近鉄道明寺線「柏原」西約1ｋｍ／近鉄大阪線「堅下」西約1．5ｋｍ",
    "course1": "支援学校【肢体不自由】",
    "course2": "",
    "course3": "",
    "course4": "",
    "course5": "",
    "course6": ""
  },
  {
    "id": "317",
    "name": "箕面支援学校",
    "ruby": "みのおしえんがっこう",
    "site": "https://www.osaka-c.ed.jp/minoo-y/",
    "address": "大阪府箕面市船場東3-15-1",
    "label": "公立",
    "education": "共学校",
    "course": "支援学校【肢体不自由・知肢併置】",
    "tel": "072-728-1245",
    "lat": "34.824858",
    "lng": "135.496544",
    "near": "北大阪急行・大阪モノレール「千里中央」から阪急バス「新船場南橋」下車北東約800ｍ／阪急箕面線「箕面」から阪急バス「新船場北橋」下車東約650ｍ／阪急宝塚線「豊中」から阪急バス「新船場南橋」下車北東約800ｍ",
    "course1": "支援学校【肢体不自由・知肢併置】",
    "course2": "",
    "course3": "",
    "course4": "",
    "course5": "",
    "course6": ""
  },
  {
    "id": "318",
    "name": "むらの高等支援学校",
    "ruby": "むらのこうとうしえんがっこう",
    "site": "https://www.osaka-c.ed.jp/murano-ks/",
    "address": "大阪府枚方市村野西町60-1",
    "label": "公立",
    "education": "共学校",
    "course": "支援学校【知的障がい（高等支援）】",
    "tel": "072-805-2327",
    "lat": "34.799731",
    "lng": "135.664928",
    "near": "京阪交野線「村野」南約250ｍ",
    "course1": "支援学校【知的障がい（高等支援）】",
    "course2": "",
    "course3": "",
    "course4": "",
    "course5": "",
    "course6": ""
  },
  {
    "id": "319",
    "name": "守口支援学校",
    "ruby": "もりぐちしえんがっこう",
    "site": "https://www.osaka-c.ed.jp/moriguchi-y/",
    "address": "大阪府守口市南寺方東通5-2-2",
    "label": "公立",
    "education": "共学校",
    "course": "支援学校【知的障がい】",
    "tel": "06-6993-2810",
    "lat": "34.720769",
    "lng": "135.578981",
    "near": "京阪電車「守口市」から京阪バス「寺方東」下車南500ｍ／「南寺方東通り5丁目」下車北300ｍ",
    "course1": "支援学校【知的障がい】",
    "course2": "",
    "course3": "",
    "course4": "",
    "course5": "",
    "course6": ""
  },
  {
    "id": "320",
    "name": "八尾支援学校",
    "ruby": "やおしえんがっこう",
    "site": "https://www.osaka-c.ed.jp/yao-y/",
    "address": "大阪府八尾市上之島町南7-6",
    "label": "公立",
    "education": "共学校",
    "course": "支援学校【知的障がい】",
    "tel": "072-923-4485",
    "lat": "34.635753",
    "lng": "135.627961",
    "near": "近鉄大阪線「河内山本」北東方面2ｋｍ／近鉄バス「上之島町」下車東200ｍ",
    "course1": "支援学校【知的障がい】",
    "course2": "",
    "course3": "",
    "course4": "",
    "course5": "",
    "course6": ""
  },
  {
    "id": "321",
    "name": "芦屋学園高等学校",
    "ruby": "あしやがくえんこうとうがっこう",
    "site": "http://www.ashiyajs.jp/",
    "address": "兵庫県芦屋市六麓荘町16-18",
    "label": "私立",
    "education": "共学校",
    "course": "普通科、国際文化科",
    "tel": "0797-31-0666",
    "lat": "34.755601",
    "lng": "135.309433",
    "near": "JR「芦屋」・阪急「芦屋川」より無料スクールバス",
    "course1": "普通科",
    "course2": "国際文化科",
    "course3": "",
    "course4": "",
    "course5": "",
    "course6": ""
  },
  {
    "id": "322",
    "name": "関西学院高等部",
    "ruby": "かんせいがくいんこうとうぶ",
    "site": "http://www.kwansei.ac.jp/hs/",
    "address": "兵庫県西宮市上ｹ原一番町1-155",
    "label": "私立",
    "education": "共学校",
    "course": "普通科",
    "tel": "0798-51-0975",
    "lat": "34.769663",
    "lng": "135.349581",
    "near": "阪急今津線「甲東園」下車バス5分･徒歩15分／｢仁川｣徒歩15分／JR｢西宮｣下車バス15分",
    "course1": "普通科",
    "course2": "",
    "course3": "",
    "course4": "",
    "course5": "",
    "course6": ""
  },
  {
    "id": "323",
    "name": "甲子園学院高等学校",
    "ruby": "こうしえんがくいんこうとうがっこう",
    "site": "http://www.koshiengakuin-h.ed.jp/index.html",
    "address": "兵庫県西宮市瓦林町4-25",
    "label": "私立",
    "education": "女子校",
    "course": "普通科",
    "tel": "0798-65-6100",
    "lat": "34.743897",
    "lng": "135.36946",
    "near": "JR「甲子園口」北西徒歩7分／阪急「西宮北口」南東徒歩15分・阪急バス｢甲子園学院前｣下車",
    "course1": "普通科",
    "course2": "",
    "course3": "",
    "course4": "",
    "course5": "",
    "course6": ""
  },
  {
    "id": "324",
    "name": "神戸第一高等学校",
    "ruby": "こうべだいいちこうとうがっこう",
    "site": "http://www.kobedai1.ed.jp/",
    "address": "兵庫県神戸市中央区葦合町寺ｹ谷1",
    "label": "私立",
    "education": "共学校",
    "course": "普通科",
    "tel": "078-242-4811",
    "lat": "34.71116",
    "lng": "135.19528",
    "near": "JR・阪急・阪神｢三宮｣から市営地下鉄｢新神戸駅｣徒歩10分",
    "course1": "普通科",
    "course2": "",
    "course3": "",
    "course4": "",
    "course5": "",
    "course6": ""
  },
  {
    "id": "325",
    "name": "甲陽学院高等学校",
    "ruby": "こうようがくいんこうとうがっこう",
    "site": "http://www.koyo.ac.jp/",
    "address": "兵庫県西宮市角石町3-138",
    "label": "私立",
    "education": "男子校",
    "course": "普通科",
    "tel": "0798-73-3011",
    "lat": "34.76016",
    "lng": "135.319144",
    "near": "阪急電鉄｢甲陽園｣西へ徒歩20分",
    "course1": "普通科",
    "course2": "",
    "course3": "",
    "course4": "",
    "course5": "",
    "course6": ""
  },
  {
    "id": "326",
    "name": "三田松聖高等学校",
    "ruby": "さんだしょうせいこうとうがっこう",
    "site": "http://www.sandashosei.net/",
    "address": "兵庫県三田市四ﾂ辻1430",
    "label": "私立",
    "education": "共学校",
    "course": "普通科",
    "tel": "079-568-1001",
    "lat": "34.950175",
    "lng": "135.159794",
    "near": "JR福知山線｢相野｣徒歩5分",
    "course1": "普通科",
    "course2": "",
    "course3": "",
    "course4": "",
    "course5": "",
    "course6": ""
  },
  {
    "id": "327",
    "name": "夙川学院高等学校",
    "ruby": "しゅくがわがくいんこうとうがっこう",
    "site": "https://www.sumashuku.jp/",
    "address": "兵庫県兵庫県神戸市兵庫区会下山町1-7-1",
    "label": "私立",
    "education": "共学校",
    "course": "普通科",
    "tel": "078-578-7226",
    "lat": "34.679607",
    "lng": "135.16016",
    "near": "神戸高速線「新開地」駅乗り換え神戸電鉄「湊川」徒歩12分／神戸市営地下鉄「湊川公園」徒歩12分",
    "course1": "普通科",
    "course2": "",
    "course3": "",
    "course4": "",
    "course5": "",
    "course6": ""
  },
  {
    "id": "328",
    "name": "神港学園神港高等学校",
    "ruby": "しんこうがくえんこうとうがっこう",
    "site": "http://www.shinko.ed.jp/",
    "address": "兵庫県神戸市中央区山本通4-19-20",
    "label": "私立",
    "education": "共学校",
    "course": "普通科",
    "tel": "078-241-3135",
    "lat": "34.694442",
    "lng": "135.183122",
    "near": "JR｢元町｣･阪神｢元町｣北徒歩10分／阪急｢三宮｣北西徒歩15分／地下鉄｢県庁前｣北徒歩5分",
    "course1": "普通科",
    "course2": "",
    "course3": "",
    "course4": "",
    "course5": "",
    "course6": ""
  },
  {
    "id": "329",
    "name": "園田学園高等学校",
    "ruby": "そのだがくえんこうとうがっこう",
    "site": "https://www.sonodagakuen.ed.jp/high-school",
    "address": "兵庫県尼崎市南塚口町1-24-16",
    "label": "私立",
    "education": "女子校",
    "course": "普通科",
    "tel": "06-6428-2242",
    "lat": "34.749114",
    "lng": "135.414141",
    "near": "阪急神戸線｢塚口｣南徒歩8分／JR宝塚線｢塚口｣西徒歩16分",
    "course1": "普通科",
    "course2": "",
    "course3": "",
    "course4": "",
    "course5": "",
    "course6": ""
  },
  {
    "id": "330",
    "name": "灘高等学校",
    "ruby": "なだこうとうがっこう",
    "site": "http://www.nada.ac.jp/",
    "address": "兵庫県神戸市東灘区魚崎北町8-5-1",
    "label": "私立",
    "education": "男子校",
    "course": "普通科",
    "tel": "078-411-7234",
    "lat": "34.719172",
    "lng": "135.268477",
    "near": "JR神戸線「住吉」東徒歩約10分／阪神本線｢魚崎｣北徒歩約10分／阪急神戸線｢岡本｣南西徒歩約25分",
    "course1": "普通科",
    "course2": "",
    "course3": "",
    "course4": "",
    "course5": "",
    "course6": ""
  },
  {
    "id": "331",
    "name": "仁川学院高等学校",
    "ruby": "にがわがくいんこうとうがっこう",
    "site": "http://www.nigawa.ac.jp/high/",
    "address": "兵庫県西宮市甲東園2-13-9",
    "label": "私立",
    "education": "共学校",
    "course": "普通科",
    "tel": "0798-51-3621",
    "lat": "34.770874",
    "lng": "135.36106",
    "near": "阪急今津線｢仁川｣･｢甲東園｣徒歩6分",
    "course1": "普通科",
    "course2": "",
    "course3": "",
    "course4": "",
    "course5": "",
    "course6": ""
  },
  {
    "id": "332",
    "name": "雲雀丘学園高等学校",
    "ruby": "ひばりがおかこうとうがっこう",
    "site": "http://www.hibari.jp/",
    "address": "兵庫県宝塚市雲雀丘4-2-1",
    "label": "私立",
    "education": "共学校",
    "course": "普通科",
    "tel": "072-759-1300",
    "lat": "34.826765",
    "lng": "135.402489",
    "near": "阪急宝塚線｢雲雀丘花屋敷｣西改札口から徒歩約3分／JR宝塚線｢川西池田｣徒歩約12分",
    "course1": "普通科",
    "course2": "",
    "course3": "",
    "course4": "",
    "course5": "",
    "course6": ""
  },
  {
    "id": "333",
    "name": "報徳学園高等学校",
    "ruby": "ほうとくがくえんこうとうがっこう",
    "site": "http://www.hotoku.ac.jp/",
    "address": "兵庫県西宮市上大市5-28-19",
    "label": "私立",
    "education": "男子校",
    "course": "普通科",
    "tel": "0798-51-3021",
    "lat": "34.769781",
    "lng": "135.372112",
    "near": "阪急今津線｢甲東園｣徒歩20分",
    "course1": "普通科",
    "course2": "",
    "course3": "",
    "course4": "",
    "course5": "",
    "course6": ""
  },
  {
    "id": "334",
    "name": "武庫川女子大学附属高等学校",
    "ruby": "むこがわじょしだいがくふぞくこうとうがっこう",
    "site": "http://jhs.mukogawa-u.ac.jp/",
    "address": "兵庫県西宮市枝川町4-16",
    "label": "私立",
    "education": "女子校",
    "course": "普通科",
    "tel": "0798-47-6436",
    "lat": "34.712512",
    "lng": "135.364034",
    "near": "阪神｢鳴尾・武庫川女子大前｣南東徒歩",
    "course1": "普通科",
    "course2": "",
    "course3": "",
    "course4": "",
    "course5": "",
    "course6": ""
  },
  {
    "id": "335",
    "name": "百合学院高等学校",
    "ruby": "ゆりがくいんこうとうがっこう",
    "site": "http://high.yuri-gakuin.ac.jp/",
    "address": "兵庫県尼崎市若王子2-18-2",
    "label": "私立",
    "education": "女子校",
    "course": "普通科",
    "tel": "06-6491-6298",
    "lat": "34.748692",
    "lng": "135.436824",
    "near": "JR福知山線（JR宝塚線）｢塚口｣西徒歩18分",
    "course1": "普通科",
    "course2": "",
    "course3": "",
    "course4": "",
    "course5": "",
    "course6": ""
  },
  {
    "id": "336",
    "name": "大谷高等学校",
    "ruby": "おおたにこうとうがっこう",
    "site": "http://www.otani.ed.jp/syoukai/senior.html",
    "address": "京都府京都市東山区今熊野池田町12",
    "label": "私立",
    "education": "共学校",
    "course": "普通科",
    "tel": "075-541-1312",
    "lat": "34.984291",
    "lng": "135.77163",
    "near": "JR・京阪｢東福寺｣徒歩5分／京阪｢七条｣徒歩10分／近鉄・地下鉄｢京都｣徒歩18分",
    "course1": "普通科",
    "course2": "",
    "course3": "",
    "course4": "",
    "course5": "",
    "course6": ""
  },
  {
    "id": "337",
    "name": "華頂女子高等学校",
    "ruby": "かちょうじょしこうとうがっこう",
    "site": "http://www.kacho.ed.jp/",
    "address": "京都府京都市東山区林下町3-456",
    "label": "私立",
    "education": "女子校",
    "course": "普通科",
    "tel": "075-541-0391",
    "lat": "35.006811",
    "lng": "135.779851",
    "near": "地下鉄｢東山｣徒歩4分/京阪本線｢三条｣徒歩8分/阪急京都線｢河原町｣徒歩13分／市バス｢知恩院前｣下車東約150m",
    "course1": "普通科",
    "course2": "",
    "course3": "",
    "course4": "",
    "course5": "",
    "course6": ""
  },
  {
    "id": "338",
    "name": "京都外大西高等学校",
    "ruby": "きょうとがいだいにしこうとうがっこう",
    "site": "http://www.kufs.ac.jp/nishiko/",
    "address": "京都府京都市右京区山ノ内苗町37",
    "label": "私立",
    "education": "共学校",
    "course": "普通科",
    "tel": "075-321-0712",
    "lat": "35.004938",
    "lng": "135.718435",
    "near": "阪急｢西院｣西徒歩14分／地下鉄東西線｢太秦天神川｣南東徒歩10分",
    "course1": "普通科",
    "course2": "",
    "course3": "",
    "course4": "",
    "course5": "",
    "course6": ""
  },
  {
    "id": "339",
    "name": "京都芸術高等学校",
    "ruby": "きょうとげいじゅつこうとうがっこう",
    "site": "http://www.kyoto-geikou.ed.jp/",
    "address": "京都府宇治市五ヶ庄西浦6-2",
    "label": "私立",
    "education": "共学校",
    "course": "美術科",
    "tel": "0774-32-7012",
    "lat": "34.91312",
    "lng": "135.804472",
    "near": "JR奈良線･京阪宇治線｢黄檗駅｣すぐ",
    "course1": "美術科",
    "course2": "",
    "course3": "",
    "course4": "",
    "course5": "",
    "course6": ""
  },
  {
    "id": "340",
    "name": "京都廣学館高等学校",
    "ruby": "きょうとこうがくかんこうとうがっこう",
    "site": "http://kyoto-kogakkan.mkg.ac.jp/",
    "address": "京都府京都府相楽郡精華町下狛中垣内48",
    "label": "私立",
    "education": "共学校",
    "course": "普通科",
    "tel": "0774-93-0518",
    "lat": "34.778471",
    "lng": "135.787168",
    "near": "近鉄｢狛田｣徒歩5分／JR｢下狛｣徒歩3分",
    "course1": "普通科",
    "course2": "",
    "course3": "",
    "course4": "",
    "course5": "",
    "course6": ""
  },
  {
    "id": "341",
    "name": "京都光華高等学校",
    "ruby": "きょうとこうかこうとうがっこう",
    "site": "http://hs.koka.ac.jp/",
    "address": "京都府京都市右京区西京極野田町39",
    "label": "私立",
    "education": "女子校",
    "course": "普通科、国際挑戦科",
    "tel": "075-325-5223",
    "lat": "34.99543",
    "lng": "135.718179",
    "near": "阪急｢西京極｣徒歩5分",
    "course1": "普通科",
    "course2": "国際挑戦科",
    "course3": "",
    "course4": "",
    "course5": "",
    "course6": ""
  },
  {
    "id": "342",
    "name": "京都産業大学附属高等学校",
    "ruby": "きょうとさんぎょうだいがくふぞくこうとうがっこう",
    "site": "http://www.jsh.kyoto-su.ac.jp/",
    "address": "京都府京都市下京区中堂寺命婦町1-10",
    "label": "私立",
    "education": "共学校",
    "course": "普通科",
    "tel": "075-279-0001",
    "lat": "34.99822",
    "lng": "135.744014",
    "near": "JR｢丹波口｣徒歩約4分／阪急｢大宮｣徒歩約10分／京福｢四条大宮｣徒歩約10分",
    "course1": "普通科",
    "course2": "",
    "course3": "",
    "course4": "",
    "course5": "",
    "course6": ""
  },
  {
    "id": "343",
    "name": "京都翔英高等学校",
    "ruby": "きょうとしょうえいこうとうがっこう",
    "site": "http://www.kyoto-shoei.ac.jp/",
    "address": "京都府宇治市菟道大垣内33-10",
    "label": "私立",
    "education": "共学校",
    "course": "普通科、看護科",
    "tel": "0774-23-2238",
    "lat": "34.896342",
    "lng": "135.811644",
    "near": "ＪＲ｢宇治｣徒歩13分程度／京阪｢宇治｣「三室戸」徒歩5分程度",
    "course1": "普通科",
    "course2": "看護科",
    "course3": "",
    "course4": "",
    "course5": "",
    "course6": ""
  },
  {
    "id": "344",
    "name": "京都女子高等学校",
    "ruby": "きょうとじょしこうとうがっこう",
    "site": "https://kgs.ed.jp/high_school",
    "address": "京都府京都市東山区今熊野北日吉町17",
    "label": "私立",
    "education": "女子校",
    "course": "普通科、ウィステリア科",
    "tel": "075-531-7538",
    "lat": "34.99014",
    "lng": "135.777167",
    "near": "阪急京都線「河原町」市バス「東山七条」徒歩5分／JR「京都」　プリンセスラインバス「京都女子中高前」",
    "course1": "普通科",
    "course2": "ウィステリア科",
    "course3": "",
    "course4": "",
    "course5": "",
    "course6": ""
  },
  {
    "id": "345",
    "name": "京都精華女子高等学校",
    "ruby": "きょうとせいかじょしこうとうがっこう",
    "site": "http://www.k-seika.ed.jp/",
    "address": "京都府京都市左京区吉田河原町5-1",
    "label": "私立",
    "education": "共学校",
    "course": "普通科、美術科",
    "tel": "075-771-4181",
    "lat": "35.024753",
    "lng": "135.773076",
    "near": "京阪「出町柳｣徒歩5分／JR｢京都｣から京都市バス｢荒神口｣下車",
    "course1": "普通科",
    "course2": "美術科",
    "course3": "",
    "course4": "",
    "course5": "",
    "course6": ""
  },
  {
    "id": "346",
    "name": "京都成章高等学校",
    "ruby": "きょうとせいしょうこうとうがっこう",
    "site": "http://www.kyoto-econ.ac.jp/seisho/",
    "address": "京都府京都市西京区大枝沓掛町26-11",
    "label": "私立",
    "education": "共学校",
    "course": "普通科",
    "tel": "075-332-4830",
    "lat": "34.98139",
    "lng": "135.654515",
    "near": "JR｢桂川｣・阪急｢桂｣からバス",
    "course1": "普通科",
    "course2": "",
    "course3": "",
    "course4": "",
    "course5": "",
    "course6": ""
  },
  {
    "id": "347",
    "name": "京都先端科学大附属高等学校",
    "ruby": "きょうとせんたんかがくだいふぞくこうとうがっこう",
    "site": "http://shs-kyotogakuen.com/",
    "address": "京都府京都市右京区花園寺ノ中町8",
    "label": "私立",
    "education": "共学校",
    "course": "普通科",
    "tel": "075-461-5105",
    "lat": "35.025405",
    "lng": "135.723029",
    "near": "阪急｢西院｣･京阪｢三条｣からバス｢等持院南町｣下車",
    "course1": "普通科",
    "course2": "",
    "course3": "",
    "course4": "",
    "course5": "",
    "course6": ""
  },
  {
    "id": "348",
    "name": "京都橘高等学校",
    "ruby": "きょうとたちばなこうとうがっこう",
    "site": "http://www.tachibana-hs.jp/",
    "address": "京都府京都市伏見区桃山町伊賀50",
    "label": "私立",
    "education": "共学校",
    "course": "普通科",
    "tel": "075-623-0066",
    "lat": "34.932009",
    "lng": "135.778566",
    "near": "京阪宇治線｢桃山南口｣西徒歩5分／JR奈良線｢桃山｣東徒歩10分／近鉄京都線｢桃山御陵前｣東徒歩15分",
    "course1": "普通科",
    "course2": "",
    "course3": "",
    "course4": "",
    "course5": "",
    "course6": ""
  },
  {
    "id": "349",
    "name": "京都西山高等学校",
    "ruby": "きょうとにしやまこうとうがっこう",
    "site": "http://www.kyotonishiyama.ed.jp/",
    "address": "京都府向日市寺戸町西野辺25",
    "label": "私立",
    "education": "共学校",
    "course": "普通科",
    "tel": "075-934-2480",
    "lat": "34.948532",
    "lng": "135.701891",
    "near": "阪急京都線｢東向日｣徒歩5分／JR｢向日町｣徒歩12分",
    "course1": "普通科",
    "course2": "",
    "course3": "",
    "course4": "",
    "course5": "",
    "course6": ""
  },
  {
    "id": "350",
    "name": "京都文教高等学校",
    "ruby": "きょうとぶんきょうこうとうがっこう",
    "site": "http://www.kbu.ac.jp/kbghs/",
    "address": "京都府京都市左京区岡崎円勝寺町5",
    "label": "私立",
    "education": "共学校",
    "course": "普通科",
    "tel": "075-771-6155",
    "lat": "35.01088",
    "lng": "135.779686",
    "near": "地下鉄東西線｢東山｣北徒歩３分／京阪｢三条｣東徒歩10分",
    "course1": "普通科",
    "course2": "",
    "course3": "",
    "course4": "",
    "course5": "",
    "course6": ""
  },
  {
    "id": "351",
    "name": "京都明徳高等学校",
    "ruby": "きょうとめいとくこうとうがっこう",
    "site": "http://www.meitoku.ac.jp/",
    "address": "京都府京都市西京区大枝東長町3-8",
    "label": "私立",
    "education": "共学校",
    "course": "普通科、専門学科（マネジメント系）",
    "tel": "075-331-3361",
    "lat": "34.969477",
    "lng": "135.681856",
    "near": "阪急｢桂｣よりバス｢明徳高校前｣",
    "course1": "普通科",
    "course2": "専門学科（マネジメント系）",
    "course3": "",
    "course4": "",
    "course5": "",
    "course6": ""
  },
  {
    "id": "352",
    "name": "京都両洋高等学校",
    "ruby": "きょうとりょうようこうとうがっこう",
    "site": "http://www.kyoto-ryoyo.ed.jp/",
    "address": "京都府京都市中京区壬生上大竹町13",
    "label": "私立",
    "education": "共学校",
    "course": "普通科",
    "tel": "075-841-2025",
    "lat": "35.007859",
    "lng": "135.733482",
    "near": "阪急「西院」北徒歩8分/地下鉄｢西大路御池｣南徒歩約5分／JR｢京都二条｣西徒歩約12分",
    "course1": "普通科",
    "course2": "",
    "course3": "",
    "course4": "",
    "course5": "",
    "course6": ""
  },
  {
    "id": "353",
    "name": "同志社高等学校",
    "ruby": "どうししゃこうとうがっこう",
    "site": "http://www.js.doshisha.ac.jp/high/",
    "address": "京都府京都市左京区岩倉大鷺町89",
    "label": "私立",
    "education": "共学校",
    "course": "普通科",
    "tel": "075-781-7121",
    "lat": "35.06768",
    "lng": "135.785909",
    "near": "地下鉄烏丸線｢国際会館｣2番出口すぐ／叡山電車｢八幡前｣徒歩7分",
    "course1": "普通科",
    "course2": "",
    "course3": "",
    "course4": "",
    "course5": "",
    "course6": ""
  },
  {
    "id": "354",
    "name": "同志社国際高等学校",
    "ruby": "どうししゃこくさいこうとうがっこう",
    "site": "http://www.intnl.doshisha.ac.jp/",
    "address": "京都府京田辺市多々羅都谷60-1",
    "label": "私立",
    "education": "共学校",
    "course": "普通科",
    "tel": "0774-65-8911",
    "lat": "34.802148",
    "lng": "135.772908",
    "near": "JR学園都市線｢同志社前｣徒歩10分/近鉄京都線｢興戸｣徒歩15分",
    "course1": "普通科",
    "course2": "",
    "course3": "",
    "course4": "",
    "course5": "",
    "course6": ""
  },
  {
    "id": "355",
    "name": "同志社女子高等学校",
    "ruby": "どうししゃじょしこうとうがっこう",
    "site": "http://www.girls.doshisha.ac.jp/",
    "address": "京都府京都市上京区今出川通寺町西入",
    "label": "私立",
    "education": "女子校",
    "course": "普通科",
    "tel": "075-251-4305",
    "lat": "35.029654",
    "lng": "135.763572",
    "near": "地下鉄｢今出川｣徒歩7分／京阪｢出町柳｣徒歩12分／京都市バス｢同志社前｣下車徒歩1分",
    "course1": "普通科",
    "course2": "",
    "course3": "",
    "course4": "",
    "course5": "",
    "course6": ""
  },
  {
    "id": "356",
    "name": "花園高等学校",
    "ruby": "はなぞのこうとうがっこう",
    "site": "http://www.kyoto-hanazono-h.ed.jp/index.html",
    "address": "京都府京都市右京区花園木辻北町1",
    "label": "私立",
    "education": "共学校",
    "course": "普通科",
    "tel": "075-463-5221",
    "lat": "35.021772",
    "lng": "135.722715",
    "near": "JR嵯峨野線｢花園｣徒歩7分／京都市バス「木辻南町」徒歩2分",
    "course1": "普通科",
    "course2": "",
    "course3": "",
    "course4": "",
    "course5": "",
    "course6": ""
  },
  {
    "id": "357",
    "name": "平安女学院高等学校",
    "ruby": "へいあんじょがくいんこうとうがっこう",
    "site": "http://www.jh.heian.ac.jp/",
    "address": "京都府京都市上京区烏丸通下立売西入",
    "label": "私立",
    "education": "女子校",
    "course": "普通科、単位制",
    "tel": "075-414-8111",
    "lat": "35.021124",
    "lng": "135.732794",
    "near": "地下鉄烏丸線｢丸田町｣北徒歩3分／市バス｢烏丸丸田町｣徒歩約5分",
    "course1": "普通科",
    "course2": "単位制",
    "course3": "",
    "course4": "",
    "course5": "",
    "course6": ""
  },
  {
    "id": "358",
    "name": "洛南高等学校",
    "ruby": "らくなんこうとうがっこう",
    "site": "http://www.rakunan-h.ed.jp/",
    "address": "京都府京都市南区壬生通八条下ル東寺町559番地",
    "label": "私立",
    "education": "共学校",
    "course": "普通科",
    "tel": "075-681-6511",
    "lat": "34.982773",
    "lng": "135.74683",
    "near": "JR京都｢八条口｣徒歩13分／近鉄｢東寺｣徒歩10分／京都市バス｢東寺東門｣下車徒歩3分",
    "course1": "普通科",
    "course2": "",
    "course3": "",
    "course4": "",
    "course5": "",
    "course6": ""
  },
  {
    "id": "359",
    "name": "洛陽総合高等学校",
    "ruby": "らくようそうごうこうとうがっこう",
    "site": "http://www.rakuyo.ed.jp/",
    "address": "京都府京都市中京区西ノ京春日町8",
    "label": "私立",
    "education": "共学校",
    "course": "総合学科",
    "tel": "075-802-0394",
    "lat": "35.01771",
    "lng": "135.727709",
    "near": "JR嵯峨野線｢円町｣西3分／地下鉄東西線｢西大路御池｣北西8分",
    "course1": "総合学科",
    "course2": "",
    "course3": "",
    "course4": "",
    "course5": "",
    "course6": ""
  },
  {
    "id": "360",
    "name": "立命館宇治高等学校",
    "ruby": "りつめいかんうじこうとうがっこう",
    "site": "https://www.ritsumei.ac.jp/uji/",
    "address": "京都府宇治市広野町八軒屋谷33-1",
    "label": "私立",
    "education": "共学校",
    "course": "普通科、国際科",
    "tel": "0774-41-3000",
    "lat": "34.868487",
    "lng": "135.797209",
    "near": "近鉄｢大久保｣バス10分／JR｢新田｣バス10分／JR｢宇治｣バス15分・京阪｢宇治｣バス20分",
    "course1": "普通科",
    "course2": "国際科",
    "course3": "",
    "course4": "",
    "course5": "",
    "course6": ""
  },
  {
    "id": "361",
    "name": "立命館高等学校",
    "ruby": "りつめいかんこうとうがっこう",
    "site": "http://www.ritsumei.ac.jp/fkc/",
    "address": "京都府京都府長岡京市調子1-1-1",
    "label": "私立",
    "education": "共学校",
    "course": "普通科",
    "tel": "075-323-7111",
    "lat": "34.911833",
    "lng": "135.693544",
    "near": "阪急「西山天王山」8分／ＪＲ「長岡京」15分／京阪淀バス12分",
    "course1": "普通科",
    "course2": "",
    "course3": "",
    "course4": "",
    "course5": "",
    "course6": ""
  },
  {
    "id": "362",
    "name": "龍谷大学付属平安高等学校",
    "ruby": "りゅうこくだいがくふぞくへいあんこうとうがっこう",
    "site": "http://www.heian.ed.jp/",
    "address": "京都府京都市下京区御器屋町30",
    "label": "私立",
    "education": "共学校",
    "course": "普通科",
    "tel": "075-361-4231",
    "lat": "34.989971",
    "lng": "135.748175",
    "near": "JRバス｢七条大宮｣下車／JR「丹波口」徒歩10分／「梅小路京都西」徒歩5分",
    "course1": "普通科",
    "course2": "",
    "course3": "",
    "course4": "",
    "course5": "",
    "course6": ""
  },
  {
    "id": "363",
    "name": "育英西高等学校",
    "ruby": "いくえいにしこうとうがっこう",
    "site": "http://www.ikuei.ed.jp/ikunishi/",
    "address": "奈良県奈良市三松4-637-1",
    "label": "私立",
    "education": "女子校",
    "course": "普通科",
    "tel": "0742-47-0688",
    "lat": "34.702933",
    "lng": "135.72819",
    "near": "近鉄奈良線｢富雄｣徒歩20分またはバス｢二名｣下車徒歩7分",
    "course1": "普通科",
    "course2": "",
    "course3": "",
    "course4": "",
    "course5": "",
    "course6": ""
  },
  {
    "id": "364",
    "name": "橿原学院高等学校",
    "ruby": "かしはらがくいんこうとうがっこう",
    "site": "http://www.kashigaku.ed.jp/",
    "address": "奈良県橿原市久米町222",
    "label": "私立",
    "education": "共学校",
    "course": "普通科、美術科",
    "tel": "0744-27-3242",
    "lat": "34.483649",
    "lng": "135.786113",
    "near": "近鉄｢橿原神宮前｣徒歩10分／近鉄「橿原神宮西口」徒歩7分",
    "course1": "普通科",
    "course2": "美術科",
    "course3": "",
    "course4": "",
    "course5": "",
    "course6": ""
  },
  {
    "id": "365",
    "name": "智辯学園高等学校",
    "ruby": "ちべんがくえんこうとうがっこう",
    "site": "https://www.chiben.ac.jp/gojo/",
    "address": "奈良県五條市野原中4-1-51",
    "label": "私立",
    "education": "共学校",
    "course": "普通科",
    "tel": "0747-22-3191",
    "lat": "34.340829",
    "lng": "135.706014",
    "near": "JR｢五条｣徒歩30分",
    "course1": "普通科",
    "course2": "",
    "course3": "",
    "course4": "",
    "course5": "",
    "course6": ""
  },
  {
    "id": "366",
    "name": "帝塚山高等学校",
    "ruby": "てづかやまこうとうがっこう",
    "site": "http://www.tezukayama-h.ed.jp/",
    "address": "奈良県奈良市学園南3-1-3",
    "label": "私立",
    "education": "共学校",
    "course": "普通科",
    "tel": "0742-41-4685",
    "lat": "34.695647",
    "lng": "135.750396",
    "near": "近鉄｢学園前｣徒歩1分",
    "course1": "普通科",
    "course2": "",
    "course3": "",
    "course4": "",
    "course5": "",
    "course6": ""
  },
  {
    "id": "367",
    "name": "天理高等学校",
    "ruby": "てんりこうとうがっこうだいいち",
    "site": "http://www.tenri-h.ed.jp/",
    "address": "奈良県天理市杣之内町1260",
    "label": "私立",
    "education": "共学校",
    "course": "普通科、定時制【普通科】",
    "tel": "0743-63-7691",
    "lat": "34.593312",
    "lng": "135.842844",
    "near": "JR･近鉄｢天理｣徒歩18分",
    "course1": "普通科",
    "course2": "定時制【普通科】",
    "course3": "",
    "course4": "",
    "course5": "",
    "course6": ""
  },
  {
    "id": "368",
    "name": "奈良育英高等学校",
    "ruby": "ならいくえいこうとうがっこう",
    "site": "https://www.ikuei.ed.jp/ikuei-jh/",
    "address": "奈良県奈良市法蓮町1000",
    "label": "私立",
    "education": "共学校",
    "course": "普通科",
    "tel": "0742-26-2845",
    "lat": "34.690705",
    "lng": "135.824598",
    "near": "近鉄｢奈良｣徒歩10分",
    "course1": "普通科",
    "course2": "",
    "course3": "",
    "course4": "",
    "course5": "",
    "course6": ""
  },
  {
    "id": "369",
    "name": "奈良女子高等学校",
    "ruby": "ならじょしこうとうがっこう",
    "site": "http://www.shirafuji.ac.jp/high/",
    "address": "奈良県奈良市三条宮前町3-6",
    "label": "私立",
    "education": "女子校",
    "course": "普通科",
    "tel": "0742-33-3601",
    "lat": "34.681303",
    "lng": "135.815128",
    "near": "近鉄｢新大宮｣南東600m／ＪＲ「奈良」西400m",
    "course1": "普通科",
    "course2": "",
    "course3": "",
    "course4": "",
    "course5": "",
    "course6": ""
  },
  {
    "id": "370",
    "name": "奈良大学附属高等学校",
    "ruby": "ならだいがくふぞくこうとうがっこう",
    "site": "http://www.nara-u-h.ed.jp/",
    "address": "奈良県奈良市秋篠町50",
    "label": "私立",
    "education": "共学校",
    "course": "普通科",
    "tel": "0742-41-8840",
    "lat": "34.707951",
    "lng": "135.78076",
    "near": "近鉄京都線｢平城｣徒歩15分",
    "course1": "普通科",
    "course2": "",
    "course3": "",
    "course4": "",
    "course5": "",
    "course6": ""
  },
  {
    "id": "371",
    "name": "奈良文化高等学校",
    "ruby": "ならぶんかこうとうがっこう",
    "site": "http://www.narabunka.ed.jp/",
    "address": "奈良県大和高田市東中127",
    "label": "私立",
    "education": "女子校",
    "course": "普通科、衛生看護科",
    "tel": "0745-22-8315",
    "lat": "34.49964",
    "lng": "135.729485",
    "near": "｢近鉄高田市｣｢近鉄大和高田｣｢JR高田｣からバス｢奈良文化高校｣行きに乗車",
    "course1": "普通科",
    "course2": "衛生看護科",
    "course3": "",
    "course4": "",
    "course5": "",
    "course6": ""
  },
  {
    "id": "372",
    "name": "西大和学園高等学校",
    "ruby": "にしやまとがくえんこうとうがっこう",
    "site": "https://www.nishiyamato.ed.jp/",
    "address": "奈良県北葛城郡河合町大字薬井295",
    "label": "私立",
    "education": "共学校",
    "course": "普通科",
    "tel": "0745-73-6565",
    "lat": "34.58756",
    "lng": "135.714243",
    "near": "JR大和路線･近鉄生駒線｢王寺｣･近鉄田原本線｢新王寺｣徒歩約18分･奈良交通バス｢星和台1丁目｣下車すぐ／近鉄大阪線｢五位堂｣から奈良交通バス｢星和台1丁目｣下車すぐ",
    "course1": "普通科",
    "course2": "",
    "course3": "",
    "course4": "",
    "course5": "",
    "course6": ""
  },
  {
    "id": "373",
    "name": "開智高等学校",
    "ruby": "かいちこうとうがっこう",
    "site": "http://www.kaichi.ed.jp/",
    "address": "和歌山県和歌山市直川113-2",
    "label": "私立",
    "education": "共学校",
    "course": "普通科",
    "tel": "073-461-8080",
    "lat": "34.259554",
    "lng": "135.211217",
    "near": "JR阪和線｢六十谷｣徒歩5分",
    "course1": "普通科",
    "course2": "",
    "course3": "",
    "course4": "",
    "course5": "",
    "course6": ""
  },
  {
    "id": "374",
    "name": "近畿大学附属和歌山高等学校",
    "ruby": "きんきだいだくふぞくわかやまこうとうがっこう",
    "site": "http://www.hwaka.kindai.ac.jp/",
    "address": "和歌山県和歌山市善明寺516",
    "label": "私立",
    "education": "共学校",
    "course": "普通科",
    "tel": "073-452-1161",
    "lat": "34.268942",
    "lng": "135.185051",
    "near": "JR阪和線｢和歌山｣･南海本線｢和歌山市｣から和歌山バス｢近畿大学附属和歌山校｣下車すぐ",
    "course1": "普通科",
    "course2": "",
    "course3": "",
    "course4": "",
    "course5": "",
    "course6": ""
  },
  {
    "id": "375",
    "name": "高野山高等学校",
    "ruby": "こうやさんこうとうがっこう",
    "site": "http://www.koyasan-h.ed.jp/",
    "address": "和歌山県伊都郡高野町高野山212",
    "label": "私立",
    "education": "共学校",
    "course": "普通科、宗教科",
    "tel": "0736-56-2204",
    "lat": "34.21762",
    "lng": "135.577151",
    "near": "南海高野線｢極楽橋｣からケーブルカー｢高野山｣下車",
    "course1": "普通科",
    "course2": "宗教科",
    "course3": "",
    "course4": "",
    "course5": "",
    "course6": ""
  },
  {
    "id": "376",
    "name": "智辯学園和歌山高等学校",
    "ruby": "ちべんがくえんわかやまこうとうがっこう",
    "site": "http://www.chiben.ac.jp/wakayama/",
    "address": "和歌山県和歌山市冬野2066-1",
    "label": "私立",
    "education": "共学校",
    "course": "普通科",
    "tel": "073-479-2811",
    "lat": "34.174294",
    "lng": "135.212647",
    "near": "JR紀勢本線「黒江」徒歩10分",
    "course1": "普通科",
    "course2": "",
    "course3": "",
    "course4": "",
    "course5": "",
    "course6": ""
  },
  {
    "id": "377",
    "name": "初芝橋本高等学校",
    "ruby": "はつしぱはしもとこうとうがっこう",
    "site": "http://www.hatsushiba.ed.jp/hatsuhashi/",
    "address": "和歌山県橋本市小峰台2-6-1",
    "label": "私立",
    "education": "共学校",
    "course": "普通科",
    "tel": "0736-37-5600",
    "lat": "34.352949",
    "lng": "135.630462",
    "near": "南海高野線｢林間田園都市｣から南海りんかいバス「初芝橋本高校前」下車",
    "course1": "普通科",
    "course2": "",
    "course3": "",
    "course4": "",
    "course5": "",
    "course6": ""
  },
  {
    "id": "378",
    "name": "和歌山信愛高等学校",
    "ruby": "わかやましんあいこうとうがっこう",
    "site": "http://www.shin-ai.ac.jp/",
    "address": "和歌山県和歌山市屋形町2-23",
    "label": "私立",
    "education": "女子校",
    "course": "普通科",
    "tel": "073-424-1141",
    "lat": "34.228708",
    "lng": "135.178715",
    "near": "JR阪和線｢和歌山｣徒歩12分またはバス／南海｢和歌山市｣からバス｢三木町｣｢三木町新通｣下車",
    "course1": "普通科",
    "course2": "",
    "course3": "",
    "course4": "",
    "course5": "",
    "course6": ""
  },
  {
    "id": "379",
    "name": "綾羽高等学校",
    "ruby": "あやはこうとうがっこう",
    "site": "https://www.ayaha.ed.jp/",
    "address": "滋賀県草津市西渋川1-18-1",
    "label": "私立",
    "education": "共学校",
    "course": "普通科、定時制【食物調理科・普通科】",
    "tel": "077-563-3435",
    "lat": "35.026948",
    "lng": "135.959583",
    "near": "JR｢草津｣西口から徒歩約7分",
    "course1": "普通科",
    "course2": "定時制【食物調理科・普通科】",
    "course3": "",
    "course4": "",
    "course5": "",
    "course6": ""
  },
  {
    "id": "380",
    "name": "青山高等学校",
    "ruby": "あおやまこうとうがっこう",
    "site": "http://aoyama-h.ed.jp/",
    "address": "三重県津市白山町八対野2739",
    "label": "私立",
    "education": "共学校",
    "course": "普通科",
    "tel": "059-262-4321",
    "lat": "34.65431",
    "lng": "136.305107",
    "near": "近鉄大阪線｢榊原温泉口｣からタクシー10分",
    "course1": "普通科",
    "course2": "",
    "course3": "",
    "course4": "",
    "course5": "",
    "course6": ""
  },
  {
    "id": "381",
    "name": "桜丘高等学校",
    "ruby": "さくらがおかこうとうがっこう",
    "site": "http://sakura-gaoka.ed.jp/",
    "address": "三重県伊賀市下神戸2756",
    "label": "私立",
    "education": "共学校",
    "course": "普通科",
    "tel": "0595-38-1201",
    "lat": "34.684005",
    "lng": "136.180238",
    "near": "近鉄大阪線｢青山町｣からタクシーで3分",
    "course1": "普通科",
    "course2": "",
    "course3": "",
    "course4": "",
    "course5": "",
    "course6": ""
  },
  {
    "id": "382",
    "name": "東大阪みらい工科高等学校（仮称）",
    "ruby": "ひがしおおさかみらいこうかこうとうがっこう",
    "site": "",
    "address": "大阪府東大阪市西鴻池町2-5-33",
    "label": "公立",
    "education": "共学校",
    "course": "工業に関する学科【機械工学系、電気情報工学系、都市住宅系、工学系】",
    "tel": "",
    "lat": "34.698839",
    "lng": "135.593553",
    "near": "JR学研都市線「鴻池新田」200ｍ",
    "course1": "工業に関する学科【機械工学系、電気情報工学系、都市住宅系、工学系】",
    "course2": "",
    "course3": "",
    "course4": "",
    "course5": "",
    "course6": ""
  }
]